sno,sna,sarea,lng,lat,807,808,809,810,811,812,813,814,815,816,817,818,819,820,821,822,823,824
1,捷運市政府站(3號出口),信義區,121.5679044,25.04085789,95,77.6,72,77.6,83,91.6,99,100.2,109,117.4,111,122.8,130,125.6,118.2,61.2,31.4,18.2
2,捷運國父紀念館站(2號出口),大安區,121.55742,25.041254,28.2,21.8,14,16.4,21.6,18.8,23,21.8,17.6,16,18.6,22.2,29.4,20.2,13,8.6,9.2,11.2
3,台北市政府,信義區,121.5651694,25.03779722,13.4,22.4,26.8,27.6,24.2,13.2,15.6,25.4,25.8,25.8,29.6,26,18.8,26.2,25.4,14.4,7.4,8.8
4,市民廣場,信義區,121.562325,25.03603611,19,23.8,35.8,37,36,36.2,34.8,36.8,38,41,43,39.6,27.8,23.2,21.6,18.8,11.8,11.4
5,興雅國中,信義區,121.5686639,25.03656389,21.8,34,27,14.4,24.8,19,9.4,22,20.4,15.2,20.6,14.2,21.4,25.4,22.6,24.8,9.6,14.2
6,臺北南山廣場,信義區,121.565973,25.034047,18.8,26.6,48,59,63.2,63.6,65,64.8,66.6,67.6,64.2,58.8,36.8,27.8,16.6,6.6,2,1.6
7,信義廣場(台北101),信義區,121.5656194,25.03303889,26.6,19.4,43.8,41,38.4,32.4,25.8,37.6,43.6,39.8,42.2,34.4,22.2,31.6,26,5.8,2,2.2
8,世貿三館,信義區,121.5636889,25.03521389,16.2,24.4,29.4,34.8,34,38.8,39.4,43.4,42.6,42,39.6,31.6,25.8,25.6,20.4,12,5.8,8
9,松德站,信義區,121.57448,25.031785,27.4,26,25.4,23.4,22,16.4,17.2,19.2,18.4,20,17.4,5.8,7.6,8.2,10.6,18.2,19.8,22.2
10,台北市災害應變中心,信義區,121.5661167,25.02866111,32,34,27.4,29.4,27,26,28,20.2,25.4,24,22.2,13.2,22.8,26.8,23.2,23,32.2,30
11,三張犁,信義區,121.55762,25.034937,55.2,18,11,8.8,8,6.2,10.4,6.6,11.2,12.8,11.6,12.6,14.2,21.8,21.2,39,50.4,54.6
12,臺北醫學大學,信義區,121.561747,25.026679,13.8,23.6,20.6,20.6,20.4,21,19.8,24,28.4,34.6,17,14,19.2,27,20.4,22.8,23.6,30
13,福德公園,信義區,121.58367,25.03809,26.2,26.8,16.6,22.2,28.4,25.2,27.2,24.2,22.8,21,21.8,26,35.8,24.8,18.6,22.2,39,28.8
14,榮星花園,中山區,121.54037,25.06424,16.2,21.4,14.6,8.8,7.8,7.4,8.4,5.8,4.8,4.4,5.8,15,7.8,12.2,13.8,16,19.6,18.4
15,饒河夜市,松山區,121.571885,25.049845,40.2,26,28,24.4,19.4,16.2,16.2,16.4,19.8,21.8,18.4,17.6,21.2,34.6,36.8,43.2,48.2,49.6
16,松山家商,信義區,121.579135,25.036084,26.6,31.8,24,24.2,19,15.4,15,17.8,19.8,7,3,6.2,8.2,16,20.8,25,33.8,34.4
17,民生光復路口,松山區,121.55514,25.05862,7.6,15.4,19.6,15.8,15.6,9.8,7.6,13,13.4,9.6,15.6,11,9.6,13.8,11.6,11,12.4,14.8
18,臺北市藝文推廣處,松山區,121.552278,25.048268,14,12.4,8.6,15,13.6,12.2,12.2,13,12.6,12,12.4,19.8,22,22.2,14.6,7.8,9,11
19,象山公園,信義區,121.56981,25.02863,10.8,13.2,19,15.4,22.6,9.8,9.8,14.6,14.8,19.6,15.8,9.2,7,2.4,4.6,7.8,6.6,3.8
20,捷運科技大樓站,大安區,121.543293,25.025896,51.8,43,9.8,13,10.4,29.2,31.4,29.6,30.6,31.2,24,26.2,13,13.4,14.2,16.8,28.4,33.8
21,民生敦化路口,松山區,121.548982,25.057985,15.2,16.8,35.4,44.4,33.6,31.8,30.4,32.6,33,37,33,41.2,33.4,24.4,17,13.2,9,9.2
22,松山車站,信義區,121.57845,25.048824,25.2,13,11.8,16.2,24.2,29,27.2,24,15.4,16,12,19.2,20.8,27.6,34.2,20.2,7.6,6.6
23,東新國小,南港區,121.602798,25.055074,18.4,21.8,16.4,11,10,8.8,6.6,6.6,5.6,4.6,4.8,7,8.6,13.2,6.2,13.2,25.2,22.4
24,信義建國路口,大安區,121.53747,25.03293,22.4,16.2,5.2,5.4,14.6,14,7.2,13,15,17,12.4,9.4,10.8,13,18,27.4,22,23.4
25,永吉松信路口,信義區,121.57205,25.04543,23,15.6,11.6,18.8,15.6,12.4,8,10,11.4,13,13.6,7.8,14.6,15.4,12.6,16.8,24.2,13.8
26,捷運昆陽站(1號出口),南港區,121.592375,25.050142,13,24,23.6,17.8,18,19,20.2,19.2,20.6,21.4,27,23.2,16,11.2,12,9.8,8.2,7
27,捷運南港展覽館站(5號出口),南港區,121.61669,25.05469,6.8,24.2,10.8,9.2,13.6,20.2,18.6,24.8,22.6,22.6,21,19.6,16.8,17.4,15.6,10.8,4.8,6.8
28,五常公園,信義區,121.57467,25.04814,11.8,15.2,11.4,17.2,15.2,11.4,12,9.2,11,11,12,9.6,14.4,18,10.2,10.6,21.2,18.6
29,金山愛國路口,大安區,121.52655,25.03164,11.4,31.6,46.4,44.2,40.2,32.8,29.8,35.2,37.4,39.8,33.4,12,8.4,9.6,10.2,8,5,6.2
30,基隆長興路口,大安區,121.544352,25.017054,51.2,48.2,45.6,33.2,26.6,36.2,26.2,38.2,45,46.6,47.2,17,10.6,13.2,26.4,40.6,49.4,53.8
31,辛亥新生路口,大安區,121.53456,25.022413,9.4,6,4,3.2,6,10.6,12.6,12.8,10,11.8,13.6,14.4,15.2,15.4,19.6,10.6,12.2,10.6
32,捷運六張犁站,大安區,121.553161,25.023884,23.6,21.8,4.8,9.2,13.4,10.6,9,14.8,11.8,15.2,14,18.4,16,7.2,7.8,11.4,19,12.6
33,中崙高中,松山區,121.56087,25.04878,14.8,16.8,25.4,26.4,29,28.2,26,30.4,32,30.6,22.6,15.6,16.6,15.2,13.2,4,10.8,11.2
34,捷運行天宮站(1號出口),中山區,121.532934,25.058369,20,11.6,10.6,12,12.8,9.6,6.2,12.2,10,10.2,10.8,13.2,8.8,12.6,16,10.4,12.6,14.2
35,捷運行天宮站(3號出口),中山區,121.533302,25.059978,19.2,19.2,15,7.4,6.4,10,7.2,9.4,10.4,11.6,7.6,7.2,20.8,18.2,16.4,20.6,16.2,10.6
36,臺大資訊大樓,大安區,121.54153,25.02101,13.2,19.8,42.4,22.2,15.6,20,12.6,45.8,50,61.2,33.6,49,41.8,36,34.8,29.8,20.8,16.6
37,捷運東門站(4號出口),大安區,121.528988,25.0337,31.2,15.6,12.4,11,13.2,8.4,8.8,2,4.4,9.2,11.8,24.4,26.6,27.8,23.8,20,17.8,20.4
38,臺灣師範大學(圖書館),大安區,121.52889,25.02665,3.6,11.8,17.4,15.4,16.4,20.4,22.4,18,14.4,12.2,5.2,7,22.2,25.6,9.8,3,5.8,4.6
39,南港世貿公園,南港區,121.61422,25.058,8,8,15.8,15.4,15,11.8,13.8,14.8,12.8,13.6,10.6,15.2,3,7,9,6.6,4.4,5.8
40,玉成公園,南港區,121.5864,25.04287,0,0,0,0,0,0,0,0,0,0,0,0,0,0,0,0,0,0
41,中研公園,南港區,121.613706,25.047425,18.8,16.6,22.4,19.6,18.8,17.6,17,15.4,16.6,18,19.2,8.6,6.4,12.2,14.6,23.6,11.6,13.8
42,捷運後山埤站(1號出口),信義區,121.58174,25.04431,17.6,14.4,9.8,16.4,18.8,23.2,23.2,27.2,28.8,24.6,13.6,20.8,25.6,25.8,16.4,23,17.8,15.4
43,凌雲市場,南港區,121.614154,25.035639,15,11,9.2,8.2,7,6.4,5,5.4,5.2,6.4,4.6,7.6,10.2,10.4,12.6,10.4,16,18
44,捷運南港軟體園區站(2號出口),南港區,121.616187,25.05973,20.4,19.8,24,23.2,22.2,22.4,24.6,21.8,23.2,22.6,21.6,20.2,12.8,10.4,11.4,13.2,12.8,15
45,捷運公館站(2號出口),大安區,121.534538,25.01476,22.6,0.6,0.2,1,1,10,12,3.6,5.2,10.6,20.4,13.6,15.8,17.6,16.4,15.2,12.4,6.6
46,南港國小,南港區,121.611027,25.05646,8.8,12,23.2,29.4,26.4,25.2,24.6,22.2,25,23.6,33.4,22.8,14.6,9.8,6.4,10,10,10.4
47,捷運忠孝新生站(3號出口),大安區,121.533862,25.041924,24.4,12.4,6.6,9.2,6.4,10.4,10.8,14,15.4,15.4,14.8,10.2,12.2,5.8,10.2,11.4,16.6,18
48,南港車站(忠孝東路),南港區,121.608202,25.05247,21.2,24,4.8,2.4,5,6.2,6,5.8,5.2,6,7.4,21.4,21.8,22.8,25,21.8,18.4,16
49,龍門廣場,大安區,121.548252,25.040901,32.4,20.2,8.4,15.4,16.6,24.8,27.8,32,34.6,24.8,27.4,19,17.2,28.2,21.4,6.4,2.2,13.4
50,民權運動公園,松山區,121.560186,25.062002,24.4,27.4,20,19,18.6,18.2,19.2,19.6,16.6,19,18.2,14.4,9.8,11.6,14.6,14.8,18,21.4
51,建國農安街口,中山區,121.536775,25.065031,17.2,13.2,8.4,7.4,8.6,7,6.6,8,10.2,10.2,8.4,8.2,3.2,9.4,13.4,13.4,15.6,18.4
52,建國長春路口,中山區,121.536925,25.054761,10.6,13,11.4,11.8,11.8,10.6,13,10.2,12.2,14.2,11.8,7,4.2,4,1.6,2.6,4.6,7.4
53,八德市場,中山區,121.536609,25.044781,8.2,8,5,4.4,4.2,4.8,5.6,7,8.2,7.6,5,4,3.6,8.6,8.8,11.8,16.4,13.4
54,臺北市立圖書館(總館),大安區,121.538073,25.028798,14.4,1.8,3,9,9.4,9.4,9.8,14.8,9.6,9.4,5,8,13.4,21.6,10.4,23.2,20.2,16.6
55,臺北田徑場,松山區,121.549408,25.049505,13.2,23.4,33,29.6,25.2,24.4,22.6,20,22.6,19.4,19.6,14,14,13.2,8.4,6.8,2.2,8
56,仁愛林森路口,中正區,121.522334,25.038954,16.4,23.4,25.2,26,22.2,16.4,15.4,20.8,22.8,28.4,26.4,20.4,12.8,14.8,18.8,16,15.8,18.8
57,新生和平路口,大安區,121.53519,25.026217,12.6,18.4,26.8,29.6,29.8,26,20,20.6,21.8,22,15,4.6,6.6,16.2,21.2,22,15.2,15.6
58,捷運善導寺站(1號出口),中正區,121.5222,25.045267,13,22.8,19.8,19.2,18.2,18,17.2,23.4,25.6,23.8,21.8,14.6,12.8,8.4,9.2,11,8.6,8.6
59,林森公園,中山區,121.525805,25.052227,18.8,11.4,7.6,10.4,8.2,8.6,8.4,11.8,10.6,8.4,7.8,12.4,16.2,21,19,17.6,15.6,13.4
60,中山行政中心,中山區,121.533487,25.064317,14,5.8,15.8,13.4,12.8,9.8,7.8,7.6,9.2,9.8,5.6,3.6,12.4,8.8,8.8,8.6,16.6,13.8
61,台灣科技大學,大安區,121.539723,25.0131,12.2,8,12.8,11.8,16,4.8,13.6,29,27,30.8,23,12.6,8.2,9,6,3.4,4.2,10
62,南昌公園,中正區,121.520258,25.026827,12.6,12.6,12.4,12.6,14,13,8.8,9.8,15,14.8,11.4,23.8,11.6,10.6,8.6,4.8,1.4,5.2
63,仁愛醫院,大安區,121.545632,25.037569,11.4,17.4,16,20.4,14.8,9,16.2,21,12.6,11,15.4,19.4,10.6,7.4,15,4.2,6.8,7.8
64,國家圖書館,中正區,121.517029,25.037773,12.2,19.6,33,30.4,32.8,27.6,28.6,34.2,37,36.6,32.2,21,16.8,17,15.6,4,3.2,3.4
65,青年公園3號出口,萬華區,121.502708,25.022725,14.4,17.6,16.6,11,13.8,17.2,20.8,23.8,23.2,21.2,15.2,10.4,16.8,9.4,13.2,11.2,27.2,28.6
66,師範大學公館校區,文山區,121.537188,25.007528,18.6,21.6,19.4,15.4,26.6,17.6,18.4,19.8,20.6,21.2,19,15.2,13.2,17.8,19,22.2,19,14.8
67,捷運臺大醫院(4號出口),中正區,121.516428,25.042973,20.6,6.6,18,24.6,18.2,14.4,20.8,23.6,29.6,29.6,26.8,32,29.4,23.2,16.6,10.4,0.8,5.2
68,國興青年路口,萬華區,121.506536,25.025865,26.4,17.6,14.4,18,17.4,13.8,15.2,16.4,13,12.8,8.6,16,14.8,16,13.6,6.2,16.8,23.6
69,興豐公園,文山區,121.547778,24.999837,19,17.8,17.4,15.4,15.2,17.6,18.8,16.2,14.4,15.2,12.6,10,15.6,12.6,12.4,8.8,14.4,11.8
70,捷運台北101/世貿站,信義區,121.561645,25.032752,35.8,23.8,27.6,26.4,25.8,25,20.2,27.4,21.8,23.2,19.8,22.6,26.8,23,17.2,12.6,0.2,2
71,捷運信義安和站(4號出口),大安區,121.554204,25.032985,20.6,9.6,4.6,4.6,3.8,6.8,9.6,8.8,8.2,7.4,7.6,9.8,14.8,7.6,11.8,8.6,9.2,8.6
72,新生長安路口,中山區,121.529346,25.048611,11,5,5,2,2.2,4.2,7.2,5.8,5.4,5.4,5,8.6,17.2,23.2,19.2,20.8,22.4,20.6
73,酒泉延平路口,大同區,121.510195,25.072228,11,12.8,20.4,17.2,16.8,13.6,13.4,16.6,17.6,18,20.6,10.8,7,5.2,7.4,11,14.2,14.6
74,信義連雲街口,中正區,121.530547,25.033817,28.6,19,17.8,14.4,13,10.2,12,8.4,6.8,4.4,7,14,16.6,17.2,15.4,14.2,15.8,16.8
75,基隆光復路口,信義區,121.557635,25.0300508,17.2,10.8,17.8,14,12.6,16.8,18.2,13.2,10.4,6.8,9,14,10.8,9.2,14.8,15.8,16.6,18
76,新生長春路口,中山區,121.527522,25.056387,25.8,16.4,15.6,15.4,11.8,11.2,13,15.8,16.2,14.6,14.6,11.2,11,8.6,15,23.4,25.2,23.6
77,民生活動中心,松山區,121.56297,25.059147,17.6,19.6,23.6,18.6,18.6,14.6,15.8,13.8,15.4,19.2,8,13,10.8,13.2,14.6,13.4,15.4,18.2
78,捷運圓山站(2號出口),大同區,121.519287,25.071824,16.8,29.4,25,16,22,31.6,30.2,29.4,31.8,32.6,29.6,26.2,19.8,17.2,12,11.4,4.2,9
79,捷運民權西路站(3號出口),大同區,121.520205,25.061285,21,26,27.6,27.6,28.6,28.4,25.8,28,33.6,32.8,31.6,27.8,19.4,22,22,18.4,16.8,17.6
80,華江高中,萬華區,121.495869,25.02751,9,17,27.6,29,26.4,30,25.4,29.2,30.8,28.8,25.8,15.4,16.6,25.6,28.6,30.4,24.4,24
81,捷運台電大樓站(2號出口),大安區,121.528552,25.020547,17.4,5.8,6,4.2,3.2,5,3,2.6,9.8,8.8,13.8,12.8,12.4,22.6,12.8,19.4,18.6,17.4
82,捷運西門站(3號出口),中正區,121.508693,25.041778,34.8,30,26,26.4,27.6,27.2,28,27.8,28.8,31.2,25.2,24.4,21,21.2,18.4,12,4.4,3.8
83,捷運大安森林公園站,大安區,121.535161,25.033156,52.4,28.2,23.6,7.2,5.4,6.6,5.6,42,46.2,47,45.6,45.4,35.6,29,28,29.6,27,23.2
84,復華花園新城,萬華區,121.502899,25.029705,26.2,18,14.6,20,18.6,18.6,24.2,18.6,19,20.6,22.2,13,11.4,15,15,12.2,15,17.8
85,信義敦化路口,大安區,121.54911,25.033362,18.8,19.6,22.6,14.4,9.6,19.6,17.2,19.4,23.2,23.8,29.8,26.2,18.2,10,11.6,9.2,9,7.6
86,民權復興路口,松山區,121.545138,25.062344,11.2,5,6.2,6.4,8.4,9.8,9.2,10.6,10,9.8,9.6,7.6,4.6,6.8,7.6,12.4,17.8,16.4
87,捷運大安站,大安區,121.543057,25.033078,10.8,2.2,2,3,4.6,1.8,6.2,7.6,7,8.4,3,11.6,13.6,7.4,9.4,5.4,1.4,3.6
88,捷運象山站,信義區,121.57087,25.032922,38.4,6.8,4,5.4,15.4,11.8,17,24,27.8,30.4,33.4,45.2,38.8,28.8,26,17.2,13.2,12.2
89,和平重慶路口,中正區,121.516385,25.027323,29.6,19.4,10.6,8.4,7.4,4,3.2,4.4,5.8,10.6,11,15.4,16.6,18,14,19.8,22.4,27.2
90,老松國小,萬華區,121.501708,25.037783,25.8,16.8,9.4,5.6,8,6.8,9.8,12.8,11.6,8.4,9,16.2,25,22.4,22.6,21.8,27,29.8
91,市立美術館,中山區,121.523268,25.070629,17.4,13.6,19,18.4,20.6,17.4,15.4,20,19.8,17.4,16,11.8,17,15,13,17.8,16.4,19.8
92,開封西寧路口,萬華區,121.507169,25.046618,16.6,11,14,6.2,2.6,2.6,8.8,5.2,6.6,6,9.8,9.6,22.2,24.6,18.4,16,17.2,16.2
93,吳興公車總站,信義區,121.569836,25.023877,33.8,19.8,20.2,33.2,34.4,33,25.6,17.4,17.8,19.2,21.8,24.4,22.4,22,24.6,33.6,39.4,28.6
94,捷運景美站,文山區,121.541059,24.993254,24.2,11.8,18.8,23.2,24.2,18.2,13,19.8,18.8,23.2,26.2,28.2,31.2,34.6,26.4,22.8,18.6,19.4
95,東園國小,萬華區,121.497679,25.023393,17,13.8,12.8,9.8,8.2,6.2,8.6,7.4,7.4,9,8.2,12.4,15.6,11.2,12.4,11.4,20,18.6
96,三民公園,松山區,121.566558,25.061567,17.8,11,6.2,6.2,5.4,10.6,12,13,13.8,16.4,14.2,9.4,13,10,12.8,8.4,15.4,16.4
97,捷運劍潭站(2號出口),士林區,121.524721,25.082825,27.2,18.4,11.6,20.4,20.8,19,21.6,22.6,23,17,16,36,30.6,25.4,10.4,3.6,1,5.2
98,羅斯福景隆街口,文山區,121.540197,24.999378,26.4,23,19.4,20.4,19.6,18.2,19.4,20.6,22.4,22,21.8,21.4,20.8,18.6,19.2,23.8,22.8,23.6
99,捷運雙連站(2號出口),大同區,121.520711,25.057866,16.2,14.4,16.4,26.2,22.8,19.4,24.4,23.8,21.2,23.6,24.4,8.6,9.8,5.6,2.4,2.8,5.8,7
100,金山市民路口,中正區,121.530697,25.045753,15.2,13.8,8.8,7.2,10.2,11.8,12.8,12.4,14.8,15.8,10.6,16,14.2,16,10.4,8.6,7.8,9.4
101,華山文創園區,中正區,121.528487,25.043668,17.8,15.2,16.6,19.8,23.6,21.4,21.4,27.2,29.6,34.8,37.2,23.8,23,23.2,20.8,17.2,15,13.8
102,臺北市客家文化主題公園,中正區,121.525322,25.02043,9.8,4.6,5,3.4,2.4,1.4,0.8,0.6,2.4,3.8,5,5.2,3.4,4.8,3.8,7.6,12.8,11.8
103,萬華車站,萬華區,121.503028,25.033639,27.6,15,14.4,12.2,14.6,12.6,15,11.8,14.2,12.6,14.8,23.8,24,24.2,26.8,26.8,29.2,29.6
104,台北花木批發市場,文山區,121.54074,25.004023,22.2,22.6,21.2,24,23.6,20.2,16.6,12.4,9.8,12.8,14.4,20.2,10.6,22.6,7.6,10.6,13.6,16
105,峨嵋停車場,萬華區,121.505409,25.044412,9.4,10.2,12.4,9.6,10.6,11.6,14.2,16.8,16.6,16.2,17.2,15.4,15,17,17.4,13.8,9.8,7
106,西園艋舺路口,萬華區,121.497674,25.032932,18.6,11.6,7.8,5.2,4.8,8.4,10.4,10.4,9.4,10.2,14.2,14.6,14.4,14.8,15.2,14.4,12.8,12.8
107,捷運小南門站(1號出口),中正區,121.509422,25.036402,12.4,28.2,36.8,37,31.8,29.6,25.6,27,29.8,35.2,31,25.8,13.2,14,14.6,12.4,9,7.8
108,臺北孔廟,大同區,121.515843,25.073306,20,13.4,13.8,12,11,5.8,5,5,2.8,5.4,4.8,15,19.2,16.8,15,13.2,21.2,22.4
109,林安泰古厝,中山區,121.530805,25.071606,12,15.6,20.6,17.8,19.6,18.4,18.8,21.4,21.8,18.8,14.8,14,12.4,14.8,12.8,9.6,10.4,10.2
110,文湖國小,內湖區,121.560888,25.086376,35.6,21,15.8,22,19.4,20,17,16.6,16.2,18.2,18.2,12,7.4,13,22,20,33,32
111,捷運忠孝復興站(2號出口),大安區,121.543497,25.040184,31.2,9.2,11,9.4,9.6,11.4,16.4,9.8,3.2,7.4,8.6,17,16.2,21.4,19.4,5,6,17.2
112,捷運新北投站,北投區,121.503124,25.137456,25.8,25.8,20.4,17,21.8,27.8,24.2,21.6,19.6,15,4.8,7.6,13,18,17.8,16.4,18.8,22.4
113,仁愛逸仙路口,信義區,121.561178,25.037724,22.2,25.2,23.4,21.6,18.4,16.6,17.4,20.2,19.8,20.2,16.2,15.2,6.6,10.4,15,17.6,15.2,13.8
114,蘭雅公園,士林區,121.530386,25.109908,15.2,16.8,14.6,13.4,9,9.6,4.6,9.8,14.2,16,10.6,11.6,15.4,17.4,13.4,4.6,7,7
115,臺北轉運站,中正區,121.520526,25.048222,42.6,23,11.6,11.4,12,14.2,16.8,16,18,17.4,20.4,35.8,39.4,39,36.8,39.4,19.6,29.8
116,福林公園,士林區,121.530215,25.096122,13.4,13.4,10.2,10.6,11.8,11.4,11.2,15,15,16.4,14.6,14.8,15.2,16.2,14.6,13,14.2,14.2
117,捷運北投站,北投區,121.498618,25.132581,30.8,18.8,28.4,17.2,17.4,23.6,32.4,33.6,29.6,29.2,25.2,32.8,28,27.8,21.8,10.8,6.6,11.4
118,大業大同街口,北投區,121.499152,25.136929,20,5.8,1,10.8,7.8,8,4.6,2.8,3.6,4.8,4.4,6.8,13.2,19,10,14.6,22,25.6
119,捷運劍南路站(2號出口),中山區,121.555116,25.08418,14.2,28.4,30.6,9.4,14.2,23.4,28,34,33.6,29.2,31,20.8,18.2,20.2,13.2,5.8,0.4,0.2
120,捷運龍山寺站(1號出口),萬華區,121.50026,25.035479,26.6,15.8,13,19.4,15.2,13.2,14.8,14,10.8,12.4,14.6,13.4,6.2,8.2,2.2,8.6,2.4,6
121,龍江南京路口,中山區,121.540568,25.05298,21.2,28,38,35.2,38.4,37.4,37,33.8,33.8,41.6,44,35.4,23.8,21.2,17,16.8,14.4,16.6
122,捷運港墘站(2號出口),內湖區,121.57584,25.079666,31.8,13,0.4,0.6,2.8,3,4.2,2.6,1.6,4.2,11.4,29.6,31.4,28.2,33,23.6,18.6,16.6
123,天母運動公園,士林區,121.534136,25.116325,14.6,23.2,29.8,24.8,22.4,19.6,16.8,21.6,22.6,22,21.6,22,25.4,18.4,18.4,19.2,15.4,17
124,振華公園,北投區,121.518163,25.115863,19,12,7.4,5.6,6.4,8.2,10.2,11.2,8.8,9.2,10.6,9.6,12.6,12.8,13.6,17,16,15.2
125,華西公園,萬華區,121.498495,25.038609,18,12.6,5.8,6,3.8,4.8,6.4,6.4,6.2,4.2,6.8,11.2,12,11.2,11,13.6,20,20
126,敦化基隆路口,大安區,121.548336,25.022073,9,9.2,10,16.6,18.4,9,4,14.8,19.2,18.2,11,18.8,3.8,6.6,5.8,5.2,5.8,6.8
127,東湖國中,內湖區,121.619521,25.073277,16.2,19.2,20.6,19,12.6,7.8,2,5,4.8,5.6,3.8,4.6,8,14.6,9.8,11.6,15,13.2
128,成功國宅,大安區,121.546726,25.026808,21,12.6,15.2,16.4,13.8,16.2,12,7,2.6,4.6,7.8,11.4,14.8,12.8,14.2,11.8,18.2,23.4
129,捷運文德站(2號出口),內湖區,121.58456,25.078424,32,22,4,6.2,4.8,6.6,7.6,3.6,4.8,3.4,4.2,13.8,26.4,24.8,26.8,28.6,24,23.4
130,羅斯福寧波東街口,中正區,121.519411,25.031445,13,15.4,13.4,13,11,7.4,8.2,9.2,6.8,7,6.2,9.2,9.2,15.6,16,11,10,8.8
131,洲子二號公園,內湖區,121.568688,25.079322,10.2,13.2,23.4,16.2,15.8,10.6,11,15.2,17.6,15.6,11.8,18,7.4,11.8,5.2,3.4,3.8,6.2
132,羅斯福新生南路口,大安區,121.5331757,25.01603085,69,27,1.2,1.8,2,8.2,15.6,8,4.8,11,29.6,55.8,69.4,56.4,50,41.6,26.4,34
133,蘭興公園,士林區,121.525888,25.111839,21.2,19.4,9.8,6.6,7,6.8,8.8,10.6,8.4,8.4,11.2,8.8,19.8,16.4,17.6,16.6,21.2,25.8
134,捷運芝山站(2號出口),士林區,121.522629,25.10336,25.4,23.6,15.8,20.2,26.8,40,44.8,34,32.8,33.2,35.8,48.6,18.8,21.2,6,1.8,1.2,4.4
135,捷運石牌站(2號出口),北投區,121.515677,25.114513,14.8,17.6,20.2,20.4,16.2,19.8,21.2,23.4,22.2,22.8,21.8,28.4,13.6,14,16.8,11.8,11.8,14
136,國立臺北護理健康大學,北投區,121.517512,25.118049,12.8,15.6,12,13.6,16.8,12.6,13.2,19.6,20.4,19,13.4,9.6,10.8,10,16.8,13.4,10,10.6
137,國防大學,北投區,121.493066,25.137976,24.4,24.4,21.4,19.2,18,17.4,17.8,15.8,15.2,14.4,12.6,6,3.8,9.2,13,22.8,26.2,27
138,捷運永春站(2號出口),信義區,121.575372,25.040558,8.6,10,1.2,7,10.8,14.4,23.2,15.2,20.6,17.2,12.6,12.6,19,13,11.2,9,12.6,15
139,永樂市場,大同區,121.510549,25.054501,14.2,13.8,25.8,16.4,16,11.2,15.2,16,20.4,23.6,18.4,17.2,13.8,9.8,6.8,6.8,11.2,10.8
140,捷運大橋頭站(2號出口),大同區,121.512909,25.063404,16.6,26.4,15.6,15.4,21.8,18.6,16,16.4,26.4,26,17.6,21,26,28,26.6,22.6,16.8,12
141,文山行政中心,文山區,121.569984,24.989902,9.8,10.2,12.2,17.4,14.2,15.2,14.6,13.4,14.2,17.6,18,15.6,19.2,21.2,12.4,14,17,18
142,捷運木柵站,文山區,121.574214,24.997747,18.4,19.8,20.6,20.8,26.4,24.6,17.2,19.4,19,20.4,18.8,16.8,16.8,19.6,23.8,24,22.4,21.6
143,捷運動物園站(2號出口),文山區,121.578752,24.997659,18.6,18.6,18.6,22.2,22.8,23.4,22.2,19.6,20.6,21,20.8,18.4,12.8,9.2,10.4,10.8,7.2,9.2
144,國立政治大學,文山區,121.576536,24.988363,21.2,22.6,24.6,22.6,23,25.2,25.8,24,26.6,25.2,23.6,23,27.6,31.8,27.8,24.4,28,30.4
145,樹德公園,大同區,121.516149,25.066688,26.6,21.4,19.4,17.8,16.2,15.4,13.4,13.6,10,10.8,11.2,12,12.8,18.2,16.2,12,19.8,24.4
146,捷運士林站(2號出口),士林區,121.526556,25.092546,26.4,20,6.4,14.2,19.6,19.6,23,23,21.2,18.8,22.2,26.8,29.6,20.6,12.4,0.8,6.2,8.6
147,士林運動中心,士林區,121.521814,25.089175,18.6,14.8,18.8,22.2,16.6,11.2,10,6.6,10.4,15.2,22,8.6,13,17.8,13.6,13.4,11.8,19.8
148,捷運明德站,北投區,121.518316,25.110331,30.6,25.2,18.2,15,16.4,17.2,19.2,13.8,15.4,18,15.4,16.4,21.4,17.4,18.2,21.4,24,23.6
149,北投運動中心,北投區,121.509621,25.116665,44.6,13.6,9.2,9,7.8,8.8,12,10.4,11.4,9.2,11,18.2,24.2,26.4,23.4,27.6,36,39.2
150,松德公園,信義區,121.57343,25.036568,12.8,19.2,21.4,27,20.2,20.4,10.2,16.2,20.4,20.6,16.4,18.2,9.2,13.4,13.8,21.6,26,21.6
151,考試院,文山區,121.549827,24.987507,9.2,9,14.4,11,10.2,10.6,13.2,12.4,14.2,13.4,9,8.4,10.6,15,14,10,15.4,17.2
152,百齡國小,士林區,121.519175,25.08521,29,27.6,21.8,20.4,27.8,25.2,16.4,16.2,17,20.6,16.4,13.4,16.2,15.6,8.6,11.6,17.2,23
153,蔣渭水紀念公園,大同區,121.516299,25.059885,19.6,19.8,17.6,12.4,10.6,9.2,10.8,9.6,5.4,4.4,4.8,8,10.6,11.8,12.4,14.4,20.6,23.6
154,中正基河路口,士林區,121.519867,25.093396,14.6,22.6,26.6,22.4,21.8,20.6,18,21,24.6,23.4,20.2,16,18.6,13.6,13.2,18.6,17,21.4
155,瑞光港墘路口,內湖區,121.57505,25.076193,9.6,16.8,8.2,4.6,5.8,11.2,9.2,9.4,8.4,10.4,8.8,4.2,1.4,3.4,2.8,4.4,3.8,3.4
156,東湖國小,內湖區,121.61538,25.06853,10.2,6.8,7,6.4,7.2,11.2,11,12.2,13,8.2,6,9,17.8,9.2,7.4,7.2,11.6,14.6
157,麗山國小,內湖區,121.571467,25.082703,17.6,13.4,9,5.8,6.6,5.8,6,6.2,3.4,6.4,5.2,8.6,9,6.6,7.8,9,11.8,15.2
158,捷運東湖站,內湖區,121.61355,25.067026,11.8,22.2,30.8,34.4,32.4,30.8,28.4,23.6,26.4,23.2,16.6,14.8,14.8,13.6,9,10,8,9.4
159,捷運西湖站(1號出口),內湖區,121.566695,25.082866,15.6,20,12,4.6,5.8,7,7.6,4.8,6.2,6.6,9.2,12.8,9.8,5.6,6.4,4,4.6,9.6
161,大豐公園,北投區,121.503768,25.131143,36.4,33.2,31.6,34.6,31.4,31.8,29.2,28.6,31.6,32.4,22.8,10.6,16.2,23,30.6,34.6,40,42
162,捷運中山國小站(4號出口),中山區,121.52772,25.062924,49.2,35.2,21.4,22,18.6,15.6,15.2,10.8,8.8,4.6,8.6,8.6,8.2,13.6,19,22.6,31.8,35.6
163,捷運麟光站2號出口,大安區,121.559279,25.018097,50,40.4,33.6,29.2,31.4,28.6,32,29.4,28.6,28.4,31,26,29.8,38.2,35.2,45,49.6,47
164,捷運奇岩站,北投區,121.500801,25.126286,17.8,23.8,22.2,24.6,22.8,32,29.4,32,31,34.2,36.6,28.2,29.4,18.8,22.6,14.6,8.2,8.4
165,捷運唭哩岸站(2號出口),北投區,121.505693,25.120788,7.4,12.6,12,9.8,9.4,8.6,9,9,9,9.8,10.2,12.2,6,3.8,5,12.2,14.6,10.8
166,臺北市立景美女中,文山區,121.556177,24.980602,13.2,16.8,16.8,16.4,17,16.6,15.4,18.6,20.4,12.4,9.2,11,19.4,18.4,6.2,5.4,10.2,12.2
167,臺北市立天文館,士林區,121.518046,25.095714,11,22.4,30.8,31.2,28,29.8,32.2,36.8,36,34.2,27.6,21.2,19.2,19.4,20.2,20.4,21.6,20.4
168,河堤國小,中正區,121.522855,25.02288,32.4,18.6,5,6,7,4.6,3,4.8,5.4,7.4,8.6,16.4,16.2,19.8,15.4,22.8,32,31
169,植物園,中正區,121.509813,25.030015,14.4,23.4,36.8,33.4,30.8,24.6,24,28.2,31.2,28.2,23,8,9.8,10.8,13.4,20.2,22.8,25
170,新東公園,松山區,121.568883,25.059245,36.4,35.6,32.4,28.8,28.4,24.8,22.6,19,18,16.8,19.2,20,18.4,21.2,21.8,23.2,30.6,30.4
171,文山運動中心,文山區,121.559651,24.996842,14.4,17.2,18.8,18,17.4,17,16.4,15.8,15,15.8,11.4,12.4,13.4,11.8,9.6,9.2,13,12.4
172,捷運南京三民站(1號出口),松山區,121.562891,25.051562,16,9,9,6,4.4,10.4,11.8,14.6,11.6,5.4,6.6,6.6,4.4,6.2,2.8,3.2,6.2,4.4
173,捷運松江南京站(7號出口),中山區,121.533211,25.052181,39.2,32.4,8.4,9.4,21.4,21.2,30.2,27.8,20.2,28.8,29.4,28.2,22.4,16.2,16.4,10.4,13,19.2
174,捷運小巨蛋站(5號出口),松山區,121.553057,25.051702,29.4,14.4,10.4,6.4,12.8,20.6,22.8,23.2,20.4,18.4,29.6,30.2,17.6,12,10,7.8,5,8.2
175,捷運南京復興站(5號出口),松山區,121.544847,25.051618,23,24.2,11,6,8.2,23.8,18,25.6,28,33.6,28.6,22.8,16,10.4,3.2,0.6,3.8,4.2
176,興安華城,中山區,121.542318,25.055997,53.8,29.8,20.6,15,11,10.4,10.2,7.8,10,14,19.6,24.2,25,31.6,39.8,51.6,59.6,64.4
177,葫蘆國小,士林區,121.507495,25.082538,18.6,16.4,12,18,16.6,16.8,19.4,19.4,19,18.6,18.6,17.2,20,19.8,13.6,14.6,17.8,21.8
178,延平國宅,士林區,121.510306,25.078908,13.2,8.8,8.2,7.6,8.6,7.6,9,7.4,7.8,6.8,6.8,6.4,9.4,12,9.4,7.6,12.4,15
179,南港公園,南港區,121.59073,25.041355,28.6,16,12.6,14.6,14.2,14.6,16,13,12.2,11.8,15.2,10.4,11.2,18.2,10.6,12.6,24.2,26.8
180,福華商場,內湖區,121.592654,25.06877,9.4,12.4,11.4,10.8,11,10.6,11,10,10.8,12.8,12.8,8.8,7.4,8.4,9.8,11,10.8,11.8
181,建國和平路口,大安區,121.537383,25.02585,10.8,20.6,28.4,35.6,24.4,20.6,21.2,29.4,28,18,6.4,10.2,17.4,23.8,23,5.2,4.8,7.8
182,捷運古亭站(2號出口),中正區,121.523537,25.0253,11,28.6,36.6,34.4,28.8,28.2,28,25.4,23.4,25.4,18.2,12.2,7.8,3.2,2.2,1,1.6,2.8
183,圓環站,大同區,121.514179,25.05379,20.2,17.2,13.6,11.8,7.8,8,7.2,7.2,7.4,5.8,4.8,5.2,8.8,4.4,7.8,12.6,19.8,15.2
184,劍潭社區,中山區,121.537892,25.084759,26.2,23.8,21.2,20.8,18.6,19.2,20,19.8,19.6,18.2,18.8,17.8,17.8,19,20.2,24.8,27.8,29.2
185,?公公園,大安區,121.54605,25.042342,17,9.6,7,2.6,3.8,7.4,10,11.8,10.8,9.4,10,18.4,17.4,16.6,13,5.4,11.6,9.2
186,臺北市立大學,中正區,121.514218,25.035414,19.2,28.2,42.8,46.6,47,48.2,32.4,30.6,36.2,39.8,37.4,25.6,21,21,17.6,9.4,13.2,12.4
187,仁愛延吉街口,大安區,121.555769,25.037465,6.4,14.6,23.4,22.4,19.2,15,16.8,12,9.8,8,7.4,9.8,6.4,7.6,6.4,13,13.8,15.6
188,社子國小,士林區,121.50189,25.090293,34.2,32.8,32.6,31.6,33.4,33.4,31,32.6,32.6,30.6,29.2,24,28.2,27.2,29.8,27.6,31.6,32.6
189,金瑞公園(金龍路),內湖區,121.58781,25.087987,24,15.6,15.4,13,11.8,11,11.8,10.8,9.2,10,10,10.6,16,17,9.8,21.4,24.2,19.8
190,捷運大直站(3號出口),中山區,121.546683,25.079278,17,18.8,10.4,6.6,6.8,7.4,7.6,14.4,13.4,11.4,10.2,10.2,11.4,9.6,11.6,5.6,7.4,4.6
191,捷運大湖公園站(2號出口),內湖區,121.60206,25.083873,10,8.4,7.4,7.6,9.6,13.4,12.6,12,11.8,12.8,10.8,10,8.6,8.4,8.2,6.6,6.4,6.4
192,捷運葫洲站(1號出口),內湖區,121.607955,25.072485,10.2,8.8,8,10.6,11.4,12.8,12.8,12.6,11.2,12.8,11.6,8.2,5.2,5.6,5,6.2,5.4,8.6
193,舊莊區民活動中心,南港區,121.61935,25.041277,18.6,11.6,9.6,10.2,10.2,10.6,11.2,8,9.2,8.4,6,6.8,10.6,11.4,11.6,15.2,20.6,20.6
194,市民林森路口,中山區,121.524388,25.047958,26,27.8,30.6,33.6,31.6,27.4,28.6,32,34,32.4,30.2,17.2,14.2,15.2,20.2,20.2,20.2,20.8
195,信義杭州路口(中華電信總公司),中正區,121.523987,25.035851,12.8,22.2,38.8,29.6,29.4,18,14.8,27.2,28.4,31.2,28.8,10.4,6.6,6.4,4.6,8.8,10.6,12.6
196,新湖國小,內湖區,121.589233,25.068744,10.6,11,7.8,5.8,5,5.8,5,2.2,5,6,5.4,2.8,3,2.4,5.4,7,12.2,13
197,饒河夜市(八德路側),松山區,121.571885,25.049845,14.8,11.6,10,9.4,8,11.4,12,12.4,12,10.4,10,9.8,12.8,15,13.6,13.2,13,13.4
201,東陽公園,南港區,121.597924,25.057164,19.2,22,24.4,22.4,20.8,14,10.8,15.6,17.8,18.4,16.2,13.2,7,8.2,11,18.8,23.8,25
202,捷運關渡站,北投區,121.467336,25.124646,27,32,35.4,24.6,20,20.6,19,17.2,15.2,19.6,18,17.8,13,14.8,11.4,11,12.4,13.4
203,古亭國中,萬華區,121.51057,25.024487,26.2,22.8,17,15,12.2,11.8,13.6,13.8,12.8,12.2,10.4,6,13.4,13,11.2,17.4,26.4,26.4
204,臺北市立大學(天母校區),士林區,121.53742,25.113625,25.6,21,19.4,19.6,18.4,17.2,13.2,15.8,18,17.8,14.2,9,12.8,13.2,13.8,18.8,24.6,24.8
205,木柵光輝路口,文山區,121.55561,24.988241,10.8,8,7.8,8.8,8,7.4,8.6,8.4,8.2,8.2,9.4,8,8.2,11.2,12,9.2,14.2,14
206,捷運辛亥站,文山區,121.55716,25.005386,8.4,12.4,16.6,18,22,19.8,18.8,18.4,16.8,16.2,13.6,11.8,10.2,12.4,13.8,13.4,13,11.6
207,福安國中,士林區,121.487477,25.103242,9.2,10,10.8,11,11,10.6,9.6,10,9,9.2,9.6,9,9.6,9.4,8.6,9.4,6,6.6
208,龍山國小,萬華區,121.495342,25.035555,27.4,20.8,15,13.6,12,12.6,12.4,11.2,12.6,12.6,11,13.8,17.6,18.4,25.4,21.4,26.6,27
209,捷運復興崗站,北投區,121.486071,25.137837,6,5.4,12.4,15.2,14.8,14.8,14,15,14.8,15.2,18.2,18.4,14.6,15.6,13.2,14.8,9.8,4.4
210,樂群二敬業四路口,中山區,121.558135,25.079766,32,21,10.2,21.4,20,16.4,11.2,4.2,5.2,7.8,10.4,18.2,16.4,20.4,25.6,26.8,34.4,40.2
211,星雲金湖街口,內湖區,121.597339,25.080915,20.4,14,10.8,10.8,13.8,11.8,11.6,11.4,13.8,13.6,12.4,10.8,10.4,8.6,7.2,9.2,9.8,9.6
212,北安大直街口,中山區,121.549452,25.084223,20.2,17,19.6,19,20.2,21.6,24.2,24.4,21.4,22,21.4,21.8,20.6,21.8,19.2,19.2,17.8,19
213,蘭雅國小,士林區,121.523107,25.107782,5.6,7.6,3.2,4.6,3,1.4,4.4,6.8,8.4,6.8,4.8,4.8,2.4,6,6.8,5.6,4,9
214,基河一期國宅,內湖區,121.578645,25.055935,10.4,7.8,11.2,11.8,10.6,11.2,10.4,10.6,7.4,7,9.6,8,4.2,3.2,3.8,5.8,9.8,10.6
215,捷運北門站(3號出口),大同區,121.510367,25.04993,35,29,21.6,31.6,32.4,30.6,27,32.6,36.4,33.2,35.8,22.6,19.8,16.6,14.4,19.6,18.2,20.2
216,培英公園,中山區,121.544601,25.082553,26.8,31.6,35,34,30.8,29,28.4,29,30.8,32.6,29.8,18,15.6,13,15,16,19.2,21.4
217,臺北花市,內湖區,121.574267,25.062645,11.4,16.8,25.8,19.4,19.4,20.8,20.6,22.2,22.6,21.6,23.6,17.2,20.2,21.2,17.4,9,3,4.2
218,松山高中,信義區,121.564108,25.043299,0,0,0,0,0,0,0,0,0,0,0,0,0,0,0,0,0,0
219,大理高中,萬華區,121.49074,25.031147,10.4,31,24.6,23.2,20,9,8.8,14.4,16.2,11,13.6,12.2,15.2,16.4,19.4,22.2,22,16.8
220,大稻埕公園,大同區,121.510512,25.059162,17.4,9.2,15.8,20.4,12.4,5.8,7,6.6,3.6,6,6.2,5,4.4,4.4,3.4,7.6,15.4,18.4
221,泰和公園,信義區,121.57107,25.019276,23.4,23.6,13.6,8.4,6.2,8.4,10.2,11,8.8,5.6,9.2,13.6,20,16,9.2,26,24.2,25.6
222,撫順公園,中山區,121.522065,25.064108,11.8,11,14.8,12.6,16.2,15.2,9.4,10,17.6,15.4,11.8,4.8,8.4,11,9.6,16.4,12.8,14.6
223,清江國小,北投區,121.507267,25.1274,17.6,7.2,21.8,22.6,20.6,10.8,7.2,6.6,11.2,3.2,3,7.6,15.2,14.6,15,21.2,27.4,28.4
224,社正公園,士林區,121.510535,25.088243,21.8,18.4,15.8,14.2,13.6,12.6,13.6,14,14.2,11.8,14.4,17.4,18,8.6,13.4,17.8,22.8,24.6
225,臥龍樂業街口,大安區,121.554839,25.0186,23.6,18,18,19.8,17.8,20,19.4,18,14.6,15.2,17.8,21.2,18.6,15.2,16.8,16.6,24,24.6
226,向陽南港路口,南港區,121.594228,25.054365,5.8,16.6,20.4,14.8,17.2,16,13.8,15.4,17.6,19.8,19,17.8,9.6,4.4,7.6,11,14,14.6
227,麗山高中,內湖區,121.57668,25.084244,20.8,22.8,17.2,8.4,7.8,5.8,6,8.6,9.8,7.2,5.4,5.8,10.8,13.4,14.8,15,19.8,21.2
228,捷運萬芳社區站,文山區,121.567474,24.998956,10.8,13.4,14.6,11,14,14.2,14.4,13.8,13,12.6,13.6,9.4,7.4,2.4,7.4,12.6,12.8,12.8
229,市民太原路口,大同區,121.514611,25.049394,12.4,15,8.2,6.2,6.6,7.2,11.4,9.4,10.6,7.4,10.4,6.6,4.6,0.6,2.4,5.4,3.2,7
230,湖光國宅,內湖區,121.580811,25.075366,24,17,12.4,5.8,4.4,3.8,4,3.6,3.6,5,5.8,9.8,14.4,16.6,13.4,20,24.4,25.8
231,內政部營建署,松山區,121.545022,25.047805,10.8,17,24.8,25.2,20.6,14.2,13.2,20.2,21.6,15.8,17.4,13,19.8,21.8,19,16.6,12,16.6
232,中山天母路口,士林區,121.529738,25.118843,12.4,3.2,6,6.8,9,8.6,8.6,11.4,9.4,7.6,6.2,6.8,12.2,10.4,10.6,6.2,9.4,8.2
233,捷運忠義站,北投區,121.474155,25.131411,12.2,13.2,12,12.6,12.4,12.6,12.4,11.4,11.6,13,14.8,14.2,14.2,13.4,11.4,11,11,10.8
234,永欣綠地,北投區,121.526071,25.124162,23.2,18.6,14.2,12,10.8,13,12.6,9.8,12.2,13.8,14.4,13.4,13.8,11.4,14.6,16.4,16.8,15.2
235,市民東興路口,松山區,121.565928,25.04846,8.8,17.6,9.8,15,8.6,9.2,9.4,9.8,8.8,10.6,12.6,11.4,5.2,11,14.2,8.6,6.6,5.8
236,關渡自然公園,北投區,121.469138,25.119292,24,9,8.2,5,3.6,3,5.8,5,5,6.6,6,7.4,15,8.6,16,22.8,24.8,25.6
237,文山第二行政中心,文山區,121.551418,25.001149,23.4,16.8,17.2,17.2,17.4,18.2,18.6,18.2,20.2,20,21,18.2,12,13,15,14,20.4,18.6
238,瑞湖陽光街口,內湖區,121.575965,25.073119,10.2,11.8,16.2,10.2,13.8,6.2,6.4,10.8,11.8,9.4,3.6,15.2,5.6,2.4,1.4,5.8,4,4.8
239,新明路321巷口,內湖區,121.584098,25.056687,12,15.8,18.6,17.4,15.8,13.8,14,13,16,16.4,16.8,14.8,12.6,10.4,12.2,11,13.4,14.6
240,南京建國路口,中山區,121.536802,25.052141,14.6,18.6,44.4,33.2,30.6,30.4,29.8,28.6,26.4,35.8,39,41.2,29.2,23,20.6,15.8,15.6,12.6
241,林口公園,信義區,121.579146,25.038943,25,18.6,16,18,22.8,23.6,27.6,18,11.6,8.6,12,15,24,10.2,13.2,22.2,22,25.8
242,關渡宮,北投區,121.463161,25.117472,11.2,10.4,9.8,9.8,10.8,10.4,11.2,12.2,12,10.6,11,7.2,8.6,8.2,9.2,10.6,11.8,11.8
243,社子公園,士林區,121.506219,25.090202,13.8,9.4,9.2,9.4,9.2,8.8,11,15.4,11.4,10.2,12.8,10.2,8.4,7,8.4,9.8,9.2,10.4
244,復興市民路口,中山區,121.543736,25.045908,21.8,19.8,32.8,34.2,23,25,26.6,27,26,25.2,24.8,18.4,18.2,16,14.4,8,1,6.6
245,捷運中山國中站,中山區,121.544028,25.060632,14.4,20.8,8.4,8.2,13,11,14.6,13.4,15.2,15,17.2,7.6,9.6,2.6,2.4,3.8,2.2,4.2
246,國立故宮博物院,士林區,121.548086,25.098743,7.8,8.2,9,8.2,8.6,8.8,9,9.4,10.6,10.4,7.4,3,2.4,3.2,4.2,5,5.6,6
247,木柵公園,文山區,121.560627,24.987144,11.8,8.4,6.6,6,9,8.4,7.6,7.8,6.6,6.4,9.8,6.8,6.6,6.2,10.8,11.2,11.4,12.6
248,喬治工商,大安區,121.555566,25.027123,11.4,14,6.8,13.2,12.4,9.6,9.6,10,10,15.2,17.2,13.8,16.2,17.8,13.6,16.4,18.2,16.2
249,中華桂林路口,萬華區,121.506624,25.037706,24,14.6,11.4,8.4,8,9,9.2,9,8,7.2,11.4,23,19.8,13.4,13.8,12.6,8.6,11
250,忠孝東路三段217巷口,大安區,121.539873,25.04184,29.2,22.2,15,13,12.4,14.6,16.6,23.4,18.4,14,12,11.6,8.2,6,8,8.2,10.6,10.2
251,華齡公園,士林區,121.520692,25.083023,22,18.2,14.8,15.2,13.8,11.4,10.2,9.6,9.6,10,11.8,12.6,13.2,15.8,9.2,15.8,15.2,16.8
252,大安運動中心,大安區,121.545608,25.020544,11.4,11.8,12.2,12.2,15.4,17.6,9.8,8.8,13.6,9.8,11,10,14.8,16.4,6.8,4,1,3.8
253,芝山抽水站,士林區,121.52799,25.101423,20,11,10.8,15,12.4,11.8,11.2,10.6,9.8,10.2,11,13.4,9.8,8.6,8.2,14.8,17.6,19.6
254,立功立德路口,北投區,121.471482,25.125377,8.2,22.6,12.8,17.4,21.6,19.4,18,21.2,20.4,22,17.8,11.2,18.4,13.8,15.4,15.6,13.8,13.2
255,光復南路22巷口,松山區,121.557674,25.046914,19.2,6.8,16.8,20.2,22.2,17.6,13.6,11,16.8,14.6,22,15,6.8,5.4,4.4,7,13.4,17.2
256,中山中正路口,士林區,121.527526,25.096507,14.4,11.2,8.4,11.8,10.8,11.2,11.6,11.6,11.6,12.8,12.6,15.2,19.2,22.2,19.8,17.2,17.4,18.8
257,錦德公園,萬華區,121.492637,25.023316,20.8,15.6,10,9.2,7.2,6,5.8,4.2,5.2,7,9,7.4,9.8,17,8.6,20.2,30,19.8
258,聯合醫院中興院區,大同區,121.507979,25.052096,8.4,15.4,22.6,26.4,29.8,25.6,24.8,25.4,22.6,20.8,20,17,11.2,12,14.8,16.8,18.6,19
259,南京遼寧街口,中山區,121.542168,25.051761,12.4,10.4,2.2,9.8,9.4,8.8,10.6,14,16.8,18,18.6,15.6,8.2,7,9.6,2,2.6,4.8
260,民權瑞光路口,內湖區,121.583991,25.068616,12.2,10.6,9.8,10,9.6,9.8,12.2,15.2,15.2,16,17,16,9.6,7.8,6.8,8.4,7.8,9
261,健康新城,松山區,121.560928,25.054095,33.4,20.8,17.8,9.4,10.8,12,12.2,12,12.4,18.4,19.4,18.6,24.8,23.6,15.6,19.4,28,33.2
262,永安藝文館-表演36房,文山區,121.569064,24.984144,17.2,13.8,12.4,13,12,11.8,11.4,10.8,11.4,12,12,14.2,9.4,13.4,9.2,13.2,11,12.8
263,至善臨溪路口,士林區,121.542153,25.097103,18.8,19.4,20.8,21,21.6,20.4,19.4,25.4,23.8,22.8,19.8,15.4,13,13,13.6,16,17,19.6
264,秀山區民活動中心,北投區,121.493009,25.145936,15,12.6,11,11.4,10.6,9.4,8.6,7.2,8.4,8.4,8,7.6,7.2,6.4,7,10.6,11.8,12.4
265,中央北路四段30巷口,北投區,121.478,25.135394,8.4,10.8,11.6,10.8,9.8,7.4,5.8,5,5.4,5,2.8,4.2,5.6,6.6,8.4,9.8,10.8,11.6
266,洲子一號公園,內湖區,121.564806,25.080258,6.6,15.2,21.8,13.6,15.4,14,13.2,21,21.2,21.6,18.2,13.8,12.6,13.4,6.6,4.6,5,5.4
267,八德中坡路口,南港區,121.580194,25.05062,12.8,12.6,13.6,15.8,14.8,14.8,15.4,13.4,14.8,16.6,16.2,15.8,7.4,9,11.2,13.2,13.4,13.4
268,南港高工,南港區,121.607055,25.056655,13.2,14,11.8,8.4,4.8,4.8,6.8,7,7.4,2.4,2.2,4.2,6.8,8.4,7.2,10.4,13,14.2
269,三軍總醫院,內湖區,121.590304,25.070723,11.6,13.6,14.8,15,17,17,17,15.8,16.2,15.6,15.2,10.6,8.6,9.6,11.4,12,13.8,13.4
270,雨農國小,士林區,121.529217,25.105429,19,17,20,17.8,13.8,13.2,13.6,12.6,15.4,18.2,19.6,12,17.8,10.2,8.6,8.8,15.2,17.2
271,伊通長安路口,中山區,121.534693,25.048334,8.8,12.2,21,18,16.4,14.8,11.4,15.4,13.8,18.4,17.6,16.4,12.2,11.8,10.4,9.4,8.2,8.4
272,忠順區民活動中心,文山區,121.563125,24.984707,19.6,13.4,14,13.2,10.6,10.8,11.6,11.8,9.8,10,11.2,9.6,9.6,8,7.4,9.6,14.4,16.2
273,芝山國小,士林區,121.535954,25.110437,25.2,16.4,22.8,19,21.8,20.8,19.2,18,19.4,18.2,18,14,18,10.2,6.2,15.8,20.4,23.2
274,扶輪親恩公園,內湖區,121.579833,25.066997,16.6,9.8,3.8,5.6,10.8,9.2,8.4,10.8,16.2,17.4,16.4,13.8,9,7.4,8.2,9,9.6,9.4
275,西本願寺廣場,萬華區,121.507688,25.040988,32.2,35.2,37.6,29.6,31.8,27.2,31,31.8,31.6,31,35.2,30.4,26.2,22.2,17,17.2,10,7.4
276,三興公園,信義區,121.55932,25.028679,28.2,18.6,16.4,12.4,9.6,10.2,11.2,11.2,10.2,10.6,14.6,16.6,15.4,16,14.2,17.4,22.6,25
277,中山堂,中正區,121.51025,25.044091,9.4,13.8,17,18.8,14.2,13.6,16.4,15.6,15,17.8,16.6,13,12.2,7.6,15.8,11.8,10.2,10.6
278,明美公園,內湖區,121.586065,25.062557,5,9.6,18,18.6,18.4,19.6,21,20.4,21.8,20.4,16.6,10.2,5.8,7,7.2,4.8,4,5.4
279,南港車站(興華路),南港區,121.606331,25.053432,29.6,22.8,16.8,2.6,7.6,10.2,13.2,10.8,7.6,12.2,15.6,20.2,27.4,32.4,25,21.8,17.4,15.2
280,士林新天地,士林區,121.51732,25.089034,19.4,10.6,14.8,11.6,13.6,13.4,15.4,13.4,14.4,12.8,13.2,11.2,12.8,13,8.2,11,8.4,10.4
281,松江公園,中山區,121.532725,25.050245,10.4,14.4,14.8,16.2,12.8,16,7.4,9.4,11,12.2,14,9.4,3.6,4,3.2,3,4,4.4
282,富台公園,信義區,121.571999,25.041935,16.4,17,10.8,13.6,18.4,17.6,15,12.8,13.4,10.4,9,6.6,12.4,13.4,17.8,15.8,22.6,18.4
283,中央北路四段540巷口,北投區,121.4677,25.127959,8,7.4,6.4,7.6,6.8,7.2,9.2,10,10,9.8,9.2,9.8,11.6,12.4,12.2,13,13.6,13.4
284,華聲公園,士林區,121.522096,25.096166,15.6,12.4,12.4,13.2,12.6,11.2,13,13,10.8,11.4,10.8,13,12,12.6,16.4,22.6,22.4,22.2
285,螢橋國小,中正區,121.51377,25.025966,26,22,19.4,23,18.2,18.8,17.6,20.2,22,21.4,22.8,19.6,24.2,20.4,14.2,13.4,24.2,28.2
286,德明財經科技大學,內湖區,121.565713,25.086372,19,14,13,14.2,13.2,12.2,12,11,10.8,8.8,5.8,7.4,7,7.8,7.8,12.2,19.4,20.2
287,第二果菜批發市場,中山區,121.538264,25.067558,20.6,14.6,5.8,5,5.6,3.4,5.8,11.6,11.2,12.6,12.6,10.4,7,7.8,7.6,13.8,18.6,23.4
288,濟南紹興路口,中正區,121.524591,25.041928,16.2,17.8,27.4,29.2,29.6,30.8,28.2,34.2,35.4,32.8,27,21.4,19,19.4,17.2,18.8,21.6,22
289,牯嶺公園,中正區,121.518835,25.023377,13.8,21.6,5.6,7.8,1.2,2.4,8.8,10.6,12.4,14.4,15.8,18.4,18,15,11.8,7.2,24.4,22.6
290,新生公園,中山區,121.530188,25.068387,4.8,2.6,2.8,4,4.6,2.8,3.6,4.2,2.2,4.4,4,3.8,8.4,8,7.4,9.4,8.4,10.2
291,捷運松山站(3號出口),松山區,121.577459,25.049616,40.2,25.4,10.8,11.4,15.4,21.6,26.6,26.8,23.4,26,23.8,32,28.6,24.8,26,14.6,15.2,14.2
292,合心廣場,南港區,121.582848,25.046361,21.8,17.2,17.4,20.4,19,17.6,17.4,17.2,17,17,18,16.4,18.2,20.2,19.4,18.2,18.6,19.8
293,自來水園區,中正區,121.530037,25.013284,9,21.4,16.8,13.6,10.4,12.2,13.8,13.6,17.6,15,12,12,14.2,13.2,3.6,4.8,4.6,3.8
294,朱崙商場,中山區,121.540431,25.047617,8,7.8,27.6,25.8,22.2,22,23.2,23.2,25.6,24.8,26,14.4,12.8,13,7.6,10.8,9.2,12
295,敦親公園,大安區,121.541083,25.023473,7.6,14.6,17.6,13.4,7.4,7,9.4,11.6,8.4,7,9,10,8.4,11.8,10.4,11.6,14.6,17.2
296,萬和二號公園,文山區,121.536446,25.001545,15.2,13,15.2,14.2,16.2,15.4,16.6,15.6,16.2,15.6,13.2,13.2,8,5.4,6.2,11.6,18.8,15.4
297,長沙公園,萬華區,121.499922,25.041702,10.4,7.4,6.6,4.8,5.4,5,5.4,5.6,6.6,5.8,6,8.8,9,8,7.6,12.4,15,14.6
298,太原五原路口,大同區,121.516976,25.056458,12.8,9.2,5.6,7.2,6.2,4.8,7.2,8,6,8,6.8,7.4,6.2,7.2,6.6,10.6,14,15.2
299,萬華國中,萬華區,121.499358,25.029264,9.4,12.6,10.6,9.2,6.6,5.2,2,4,6.2,4,4.2,2.8,5.4,3,3.2,5,8,8.6
300,信義基隆路口,信義區,121.558731,25.033209,8.4,8.6,19.4,9.2,10.4,10,9.2,9.2,7.4,12.4,11.4,8.8,9,6.6,10.8,8,5.2,4.8
301,林森長春路口,中山區,121.525383,25.055062,7.8,5.6,12,8.2,7.4,8.8,7,8,7.2,5.2,4.4,5.4,6.8,8,10,11.8,15.6,14.4
302,敦北公園,松山區,121.550711,25.060746,17,17.8,19.8,20,17.4,19.2,19.2,18.8,20.6,21.2,18.2,11.2,7.8,10.6,10.2,9.6,7.6,8.4
303,安泰街83巷,內湖區,121.617085,25.076691,20.6,15.4,9.2,6.4,7.4,4.2,2.6,3.6,2.8,3.6,4.2,5.2,11,8.8,9.4,15,19.6,21
304,金華公園,大安區,121.531235,25.029902,18,15,8.2,12.2,12.2,10.2,7.2,7.8,7,7.4,6,4.8,13.4,11.2,8.4,14.6,23.2,19.6
305,碧山公園,內湖區,121.592253,25.087413,19.2,23.6,5.4,4.6,4,4,2,1.2,2,2.2,5.2,4.8,11.4,13.2,16,16.2,25.2,27.2
306,捷運古亭站(6號出口),大安區,121.52198,25.027781,33.2,14,5.6,6,9.8,13.6,17.4,23.2,21.4,24.6,22.4,16.4,18.6,20.6,19.8,21,14,20.4
307,仁愛安和路口,大安區,121.552076,25.03757,7.8,7,18.4,15.6,13.8,10.8,5.6,9.8,13.2,13.8,13.6,13.6,11,11.6,8,9.4,5.8,5
308,西松高中,松山區,121.567127,25.055672,20,19.2,17.8,13.6,10.6,15,11,14.6,18.6,9,1.2,3.2,10.2,12.4,10.6,14.8,15,18
309,三軍總醫院(松山分院),松山區,121.556098,25.05447,24.8,31.2,27.6,24.6,21.2,15.4,14.4,11.4,12.8,13.4,10.6,6.8,11.2,12.8,13.8,20.2,27.8,24.2
310,國立臺北大學(臺北校區),中山區,121.542732,25.057923,7.8,10.8,19.4,15.6,17.4,15.6,14.2,19.4,20,14,13.8,10.4,9,8,10.4,8.6,9.6,10.6
311,捷運忠孝新生站(2號出口),中正區,121.532229,25.042392,15.6,17.2,16.8,6.4,5.2,6.8,7.6,9.8,9.4,5.8,6.2,7.6,7.4,8.2,6,4.8,4.2,6.2
312,捷運信義安和站(1號出口),大安區,121.552787,25.033323,21.6,5.2,4.6,2,1,3,5,6.6,5.6,4.8,4.4,8.6,15.4,12.6,10.6,6.2,7.8,6.2
313,光華商場,中正區,121.532738,25.04515,24.6,22,26.2,31.2,34.6,42.8,46.8,42.4,43.8,43.2,42.4,38.8,30,28.2,24.4,20,18.8,19
314,敦化長春路口,松山區,121.54872,25.053614,9.4,16,15,15.4,18.6,12.6,9.4,13.8,12,13.8,16.6,19.6,16.4,13.8,12.4,8.6,6,9
315,捷運萬隆站(1號出口),文山區,121.539037,25.001447,14.8,18.4,16.4,16,16,16.8,16.2,16.2,16.6,17.8,16.2,16.4,12.2,11.4,12.6,10.2,13,9.8
316,民有一號公園,松山區,121.54763,25.060911,15.4,12.4,26.6,18.6,20.4,21,22,20.4,16.4,17.2,14.6,9.2,7.4,4.6,9,12.6,21.2,21.8
317,雙園國中,萬華區,121.491675,25.026823,13,9.4,9.6,11.4,10.4,7.8,6.8,4.4,3,4.6,7.2,7.4,5.2,10.8,11.4,13.4,20.4,18.2
318,成功金龍路口,內湖區,121.59484,25.084135,12.6,16.4,15,15.2,14,13,15.4,15.2,15.6,16.2,16.6,16.2,13.6,13.4,11,12.6,4.8,5.4
319,民族林森路口,中山區,121.525322,25.068507,18.2,15.8,18,19.6,16.4,17,13.2,15.4,13.2,14.8,11.8,10.8,12.8,7.2,10.2,11.4,16.2,16.4
320,捷運南京三民站(3號出口),松山區,121.564262,25.051287,8.4,7.4,6.2,3.4,7.2,10.2,13.2,9.6,7.6,6.8,7,7.6,5,9.4,8.2,4.2,3.4,1.8
321,莒光大埔街口,中正區,121.505085,25.031334,19.8,17.2,14.2,13,11.4,10.8,10.6,11,8.4,9.4,11.2,12.2,12.2,10.8,10.4,18,19.6,19.4
322,永盛公園(民生東路一段23巷),中山區,121.52504,25.058835,9.2,8.6,8.4,6.6,6.8,4,2.8,7.4,9.2,9.2,9.6,8.4,10.6,11.2,8.8,11.8,17.6,18.6
323,新興公園,中山區,121.524392,25.061568,8.8,4.8,7,7.8,6.6,6.6,6.6,6.4,8.6,6.8,7.6,4,5.6,7.4,6,12.4,14,12.8
324,市立圖書館葫蘆堵分館,士林區,121.5108,25.08221,13.4,9,6.8,6.2,7.4,6,7.4,9.8,10.4,8.8,9.4,5.4,8.2,12.2,10.4,6.4,12.4,12.8
325,南京東路六段368巷,內湖區,121.58707,25.05827,9.8,11,14,17.2,17.8,18.4,19.6,19.8,20,19.8,19.2,13,5,5,5.8,7.8,7,7.4
326,基隆路一段101巷口,信義區,121.56709,25.04525,16.2,11.6,18.8,12.8,14.8,13.8,15.2,13.6,11,15.6,14.8,8,7.6,10.6,12.8,11.8,15,18.2
327,重慶南海路口,中正區,121.51464,25.03158,10.8,9.2,14.6,12,13.2,11.8,11.4,10.2,11.4,14.4,9.8,8.8,11.4,9.8,5,7.2,8.6,8.6
328,一江公園,中山區,121.53146,25.05316,14.6,17.8,20.8,20.6,21,22.2,21.8,20.2,17.6,21.4,21.8,15.4,12.4,9.6,10.2,9.6,12.8,15.6
329,樂群二明水路口,中山區,121.55236,25.07983,12.4,10,16,22.6,19.8,22.8,20.6,23.2,17,16.6,12.4,7.6,9.2,12.8,6.6,5,6.4,8.8
330,迪化休閒運動公園,大同區,121.5115,25.07491,12,11.2,11,17.8,14.6,13,14.6,12,12,11.6,11.8,10.6,8.4,6.6,8.6,11.2,12.2,15.8
331,民族玉門街口,中山區,121.51974,25.06859,19.2,16,14.8,12.2,10.6,9.6,10.2,10,10.6,10.6,10.6,10.8,8.2,11.4,13.2,10.8,10.4,15.6
332,捷運中山站(2號出口),中山區,121.52193,25.05225,12.2,15.4,10,9.8,10.8,11.6,16.6,15,20.6,16.8,14.4,16.6,20,15,20.4,8.4,11,8.6
333,復盛公園,松山區,121.561182,25.047428,15.6,10.2,3.4,7.4,9.4,13.6,11.8,12.8,9.8,8.2,10.2,11.8,15.8,18.4,15.8,18.4,17.2,18.2
334,敦化南路二段103巷口,大安區,121.549024,25.028973,9,9.2,12.2,6,4.8,3.6,1.8,8,3.8,4,5.2,7.8,4.2,3.8,7,11.2,12.2,14.4
335,景文中學,文山區,121.567855,24.986301,16.4,19.2,17.2,17.8,16.2,16.2,14.8,15.8,15.6,15.2,10.4,5.2,9.4,6.4,11.2,10.4,12.4,13.4
336,承德路三段8巷口,大同區,121.51815,25.06382,6.4,9,12.8,13,10.2,12,12.8,11.6,11.4,10.6,10,12,9.4,9,8.2,6.4,7.6,10
337,彩虹橋,內湖區,121.57592,25.05301,12.2,10.6,8.6,9,9.6,9.6,10.2,10.2,8.8,8,8.6,11,13.6,15.4,14.2,12.6,12,11.4
338,成德國中,南港區,121.58794,25.04573,7,9.6,5.6,6.8,8.6,6.2,6.4,9.2,11.2,11.2,8.4,9.4,18.4,19.8,14,8.8,15.8,16.6
339,重慶國中,大同區,121.51816,25.07581,10.2,22.6,21.6,20.2,19.6,18.4,9.2,10.2,12.2,11.2,8.6,9.8,13.2,14,13.8,17,18.6,20.4
340,南京光復路口,松山區,121.55716,25.05143,8.2,6.4,14.6,12.2,11.4,11.2,12,13.8,11.6,10.2,8.4,4.8,4,4.8,5.8,1.4,6,7
341,捷運芝山站(1號出口),士林區,121.52243,25.10094,10.2,7.2,9,7.4,7.6,10.8,10.4,11.2,11.6,10.8,11.6,11.6,12.4,16.6,14,9.4,7.6,7
342,文林建民路口,北投區,121.51468,25.10779,19.4,14.6,15.2,14,12.8,13,12,11.6,10.6,12,14.4,8.2,10.2,12.2,14.2,18.2,21,22
343,忠孝東路六段185巷口,南港區,121.58755,25.04904,18.6,17.6,11.8,10.8,11.8,10.2,10.4,7.4,6.4,7,7.4,9.4,14.4,9.6,11.8,15.6,19,22.4
344,捷運忠孝復興站(5號出口),大安區,121.54401,25.04264,22,17.8,9.2,6.4,5.2,5.8,11,12.6,18.8,18.4,14.6,15.8,15.8,20.2,17.8,6,4.4,8.8
345,中正運動中心,中正區,121.51943,25.03806,12,14.2,17.4,19.2,20.6,16.8,16.4,15.4,14,12.8,10.4,13.4,16,15.6,7,1,7,6.6
346,陽明高中,士林區,121.51669,25.09157,19,23.2,23,23.8,24.6,21.4,20.2,20.4,18.6,16.6,15.8,16.4,16,14.2,14.8,14.6,16.8,17.2
347,博愛寶慶路口,中正區,121.51135,25.04134,9.2,16.6,11.4,16,15.2,12.6,11.4,14.6,12.2,16.6,15.2,7.2,3.6,6,7,5,4.8,5.6
348,民生立體停車場,松山區,121.55945,25.05794,15.8,13.4,12,9,11.6,10.8,7.2,9,14,10.2,13,9.2,13.2,13.2,9.6,9.8,11.8,13.6
349,重慶酒泉街口,大同區,121.51364,25.07183,18.6,13.4,6.4,8.2,9.4,8,7,7.2,6.8,7.8,7.8,7.4,12,8.6,7.4,8.6,9.8,11.6
350,復興南路二段128巷口,大安區,121.54336,25.02904,24.4,13.8,7.4,6.4,16,18.8,13.6,13.6,12.4,15.2,9.4,12.4,20,15,18,19.8,20.6,16.4
351,中山青島路口,中正區,121.51954,25.04469,15.6,24,18.6,21.2,17.8,17.4,19.6,21.8,20.4,22.4,20.2,20.6,14,9,11.2,7.4,3,5
352,民權迪化街口,大同區,121.50944,25.06318,15.8,8.6,6.2,7,7.4,7.2,6.2,8.2,7.8,9.4,9.2,9.8,13.2,11.4,13.4,15.6,17.8,16.6
353,紀州庵,中正區,121.52049,25.02088,15.6,15.8,7.6,5.4,5.2,3.6,3.6,2.2,1.8,2.4,2.8,6,11.6,10.2,12.2,12.2,19.2,19.6
354,建國濟南路口,大安區,121.538084,25.040033,8.6,9.8,13.8,18,15.8,11.2,7.8,7.6,7.6,7,7,3.4,4,4.6,7.2,7.2,7.6,7
355,福山公園,南港區,121.61759,25.04478,15,14.2,15.2,21.2,17.8,14,13.6,14.4,11.4,13,12.8,10.6,7.6,8,10,12,17.2,17.4
356,臺北市網球中心,內湖區,121.59749,25.0674,5.2,4,5.8,5.8,6,7.6,7,10.4,10.6,9,7.8,6.4,7,5.8,7,5.2,5.2,5.4
357,松友公園,信義區,121.57636,25.03423,8.8,11.4,13.4,14.8,14.6,13.2,14.2,14.6,13.2,12.4,12,14.4,16.2,7.6,11.2,10.8,11,7.6
358,新明成功路口,內湖區,121.5911,25.06058,10.6,7.6,4.6,5.8,10.4,13,14.2,13.8,13,12.2,11,8.2,7.6,6.8,5.6,5,5.6,6
359,健安新城,松山區,121.56358,25.05601,25,9.8,4.6,7.8,9.2,5,4.6,6.2,6,7.8,11.4,14.4,18.8,17.6,24.8,10.4,18.6,21
360,民權建國路口,中山區,121.53754,25.06252,13.4,8,19.2,25.4,29.6,30.6,30.2,30.2,28.6,23.2,20.8,13.2,6.8,6.8,4.4,5,8.8,11.4
361,振興醫院,北投區,121.5222,25.1177,10.2,23.4,16.8,14.8,19.8,21.2,22.8,23.4,21.2,18.4,13,6.6,14.8,11.8,9.6,6.6,6.4,7.4
362,和平金山路口,大安區,121.52533,25.02672,10.2,9.6,13.2,11,13.4,13.6,15.4,14.4,16.2,14.2,9.6,5.8,8.6,11.4,13,9.2,10.8,9.6
363,復興南路一段340巷口,大安區,121.5435,25.03617,13.2,11.6,19.2,15.2,16.6,15.8,10.2,10.4,14.2,12.8,14.8,13.8,15.2,14.6,14,4.8,4.2,11.8
364,嘉興公園,大安區,121.55219,25.02109,18.2,16.8,13.8,18.2,22.4,17.6,16.2,14.6,11.4,10,10.2,21.4,16.8,13.8,13,16,6.8,11.2
365,陽明大學,北投區,121.51223,25.11912,29.8,25.6,27.6,29.6,29,29.2,27,26.4,28.2,30.2,26.2,20.6,20.4,23.6,23.6,30.4,35.6,36.6
366,碧湖公園,內湖區,121.58287,25.07988,14,12,8.4,6.8,9,7.2,6.8,5.6,6.4,6.6,5.6,6.6,9.4,9.4,11.4,14.6,15.8,16
367,豐年公園,北投區,121.497019,25.13597,17.2,8,3.4,4.8,3.4,4.8,5,4.2,4.8,4.8,7,10.8,10.2,12.4,16.8,14,18.4,20.2
368,臺灣戲曲中心,士林區,121.51979,25.10208,10,13.8,17.4,17.6,18.6,17.4,17,16,16.2,16.2,15.6,12.2,12.4,11.4,11.4,11.6,12.4,13.2
369,世新大學,文山區,121.54361,24.98862,10.8,10.6,15,15.8,15.8,15,15,15,16,14,12.2,12.2,10.4,10.6,9.8,9.4,8.4,11.2
370,新和國小,萬華區,121.50242,25.02656,12.8,10.6,14.2,14.6,13,12,13.2,10.6,8.8,9.2,9,8.6,12.4,8.4,11,10.8,15.2,17.4
371,南門國中,中正區,121.50834,25.03532,14.6,22.2,24.4,21.4,22,22.4,20.2,18.6,20.6,22.4,16.6,13,11.2,10.8,10.8,9.8,7.4,6.6
372,重慶民族路口,大同區,121.51359,25.06825,14,8.2,5,10,11,10.4,10.6,11.4,5.8,8,10.2,4.4,8.6,11,6.4,11.8,15.4,16.6
373,中崙福成宮,松山區,121.546635,25.04525,15.6,16.4,12,8.8,9.8,8.2,8.4,10.6,11.4,8.4,8.6,8.8,9.4,8.6,11.6,8,10,8.4
374,麗湖國小,內湖區,121.602225,25.073322,10.8,10.6,12,11.6,10.4,8.8,9.2,9.2,8,8.2,8.2,9,7,10.8,8.4,9,9.2,9.2
375,銘傳大學,士林區,121.526766,25.087714,14.8,13.2,12.8,14.4,14.4,15.2,15,16,17.2,17,14.6,12.2,9.6,10.4,10.2,8.8,8.2,7
376,民生建國路口,中山區,121.536915,25.057778,10.6,8.6,18,25.4,24.4,24.4,23.6,23.6,22.8,24.6,23.2,15.6,8.2,13.2,14.6,14.2,11.2,10.4
377,南港路二段178巷口,南港區,121.599693,25.053675,9.2,9.2,12.6,12.6,9,8.8,8,8.4,7.2,6.2,6.6,6.6,6,5.6,6.6,8,11.2,13.6
378,陽光街321巷口,內湖區,121.578691,25.073193,7.4,12.4,11.4,11.8,14,12.4,12.4,16.4,17.4,15.8,8.8,6.8,13,3.8,5.6,3.4,2.2,4.2
379,春光公園,信義區,121.580762,25.042619,24.2,22.8,18.2,19.6,17.8,21,18.8,17,21.2,17.8,16.4,16,18.6,12.4,15.2,26.2,25,23.8
380,塔悠疏散門,松山區,121.567899,25.064713,7.8,5.6,3,2.8,3,2.8,3.4,4,3.8,4.8,6.6,8.2,9.2,8.4,11.6,14.2,20.6,18.2
381,民權東路六段15巷,內湖區,121.578125,25.06853,7.2,10.4,13.6,17,18.4,17.2,17.6,15.8,18.6,20,18.6,17.4,11.6,7.4,5.4,4.2,4,4.2
382,聯合醫院和平院區,中正區,121.50639,25.03516,21.4,25,22.8,24.4,24.6,22,22.4,23.2,23,21.6,14,14.4,19.6,19.2,17.4,13,17.4,19.6
383,一壽橋,文山區,121.55545,24.97848,13.4,11.2,10,9.8,11.4,10.6,10.6,9.6,9.2,9,6.8,7.4,8,8,9,9.8,11.8,12.4
384,松基公園,松山區,121.5448,25.05491,9.8,12.2,20.2,21,20,17,17,17,15.8,14.4,15.2,12.8,6.8,4.4,6.6,8,10.8,10.8
385,和興路26巷口,文山區,121.54531,24.9856,22,20,19.2,18.6,17,16.4,14.4,14,13,13,13,13.8,15.6,16,19.4,21.4,24,22.2
386,錦州吉林路口,中山區,121.52981,25.06029,19.4,16.2,10,7.4,6.4,6.2,7,6,6.8,7.2,5.8,7.4,10.2,8.6,2.2,10.6,15.8,19.2
387,吳興街260巷,信義區,121.56316,25.0261,12.2,7.8,10.8,6.2,6,7.4,11.6,10.2,10.8,7.8,4.2,8.8,10.6,13.6,9.2,11.8,14.8,11.2
388,景華街128巷口,文山區,121.547092,24.995563,7.8,14.2,10.6,10.8,11.8,9.8,9,12,12,10.8,10.2,7.8,9.6,6.8,7.6,8.6,10.6,7.2
389,福德國小,信義區,121.586245,25.038324,16.4,7.6,11.4,11.6,12,10.8,10,8.2,7.8,10.6,12.4,12.6,14.8,22.6,7.8,17.4,18.6,13.6
390,稻香重三路口,北投區,121.489594,25.139937,22.4,13.8,8.4,7.2,7,5.4,6,5.8,5.4,5.4,4.2,6.8,9.8,13.6,19,18.6,23,27
391,景仁公園,文山區,121.540295,24.9966,15.6,12.4,11.8,12.2,11,11.2,10.6,11.8,11.2,11.6,10.2,9.8,14.6,10.4,7.6,8.6,10.6,14.2
392,南京東興路口,松山區,121.565347,25.051489,15.8,12.4,8.2,3,6.2,6.8,8.8,13.6,13.6,15.4,7.6,5.6,7.2,6.4,7.6,10.6,4.8,9.4
393,內溝溪生態展示館,內湖區,121.623062,25.087217,12,12.4,12.2,12.2,10.6,10.4,10.6,10.8,10.8,12,11.2,10.6,11,12.4,13.6,13.8,13.6,13.4
394,松德虎林街口,信義區,121.576248,25.038352,12.6,14,9.6,9,7.2,9.2,10.6,15.8,15.6,17.4,15.8,13.8,9.4,15.4,14.2,17.4,17.2,15.2
395,安強公園,信義區,121.575413,25.036844,18.8,10,16.6,10.2,15,13,12,14.8,18.4,16.6,14.8,8.4,7.2,8.2,9.6,20.8,17.6,20.2
396,新東街51巷口,松山區,121.563318,25.061501,17.6,15.8,12.6,8.8,8.4,7.2,7.2,8,10.6,10.6,9.8,10.2,10.6,13.6,15.4,16.6,18.2,18.2
397,劍潭海外青年活動中心,士林區,121.5237,25.079603,14.6,9.4,9,12.4,11.6,12.2,10.8,10,9.2,7.8,5.8,7.2,10.4,14.4,16.6,20.2,17.6,18.6
398,聯合醫院陽明院區,士林區,121.531949,25.104546,12,17.8,18.8,17.4,16.2,16,15.4,18,18,18,16.4,9.2,6,8,7.4,8.2,10,11.2
399,和平龍泉街口,大安區,121.52946,25.026404,0,0,0,0,0,0,0,0,0,0,0,0,0,0,0,0,0,0
400,和平敦化路口,大安區,121.549076,25.02444,2.4,4.2,7,5.8,4.8,3.8,7.2,15.6,17.4,19.2,16.6,9.8,6.4,5.4,6.4,5.8,7.2,6
401,南京新生路口,中山區,121.527661,25.051944,23,18.4,19.2,23.4,18.8,14.4,11,11,12.8,15.4,14,7.2,8.8,18.8,14.2,18.4,14.4,19
402,下灣公園,內湖區,121.595611,25.065159,8.4,8.2,7,7.4,7.4,6.8,7.4,7.8,8.2,8.2,8.2,7.4,7.8,8.4,7.6,8.4,8.2,8.2
403,捷運內湖站(1號出口),內湖區,121.593929,25.083868,8.8,12.6,15.2,17,14.4,14.4,13.8,15.4,16,10.6,12.6,11.4,10.8,8.2,9,7.2,5,6.8
404,民族延平路口,大同區,121.510569,25.068653,18.6,17.6,12,11,7.6,8.8,9.2,5.8,3.6,4,6,4.4,7.2,16.6,10.2,14.6,17.4,19.6
