sno,sna,sarea,lng,lat,7,8,9,10,11,12,13,14,15,16,17,18,19,20,21,22,23,24
1,捷運市政府站(3號出口),信義區,121.5679044,25.04085789,0.66,0.62,0.59,0.54,0.53,0.56,0.66,0.66,0.61,0.59,0.53,0.56,0.75,0.72,0.75,0.44,0.19,0.11
2,捷運國父紀念館站(2號出口),大安區,121.55742,25.041254,0.64,0.55,0.3,0.11,0.33,0.27,0.5,0.69,0.29,0.33,0.29,0.69,0.48,0.19,0.42,0.21,0.5,0.35
3,台北市政府,信義區,121.5651694,25.03779722,0.33,0.4,0.6,0.97,0.55,0.28,0.3,0.62,0.7,0.47,0.85,0.5,0.53,0.28,0.75,0.35,0.42,0.17
4,市民廣場,信義區,121.562325,25.03603611,0.22,0.28,0.55,0.52,0.47,0.48,0.55,0.6,0.7,0.65,0.83,0.82,0.42,0.43,0.3,0.27,0.17,0.12
5,興雅國中,信義區,121.5686639,25.03656389,0.47,0.42,0.75,0.27,0.25,0.07,0.17,0.28,0.28,0.27,0.3,0.45,0.2,0.45,0.5,0.57,0.12,0.15
6,臺北南山廣場,信義區,121.565973,25.034047,0.27,0.32,0.59,0.72,0.81,0.82,0.78,0.84,0.9,0.9,0.91,0.9,0.37,0.26,0.26,0.03,0.03,0.03
7,信義廣場(台北101),信義區,121.5656194,25.03303889,0.38,0.31,0.62,0.7,0.68,0.71,0.67,0.86,0.68,0.71,0.64,0.35,0.51,0.5,0.29,0.01,0.1,0
8,世貿三館,信義區,121.5636889,25.03521389,0.41,0.56,0.68,0.75,0.68,0.69,0.71,0.75,0.76,0.76,0.76,0.64,0.2,0.24,0.14,0.03,0,0.2
9,松德站,信義區,121.57448,25.031785,0.72,0.65,0.68,0.7,0.57,0.23,0.12,0.15,0.33,0.93,0.95,0.05,0.2,0.35,0.33,0.4,0.6,0.53
10,台北市災害應變中心,信義區,121.5661167,25.02866111,0.68,0.7,0.62,0.62,0.57,0.69,0.72,0.4,0.47,0.4,0.62,0.27,0.69,0.94,0.54,0.85,0.83,0.75
11,三張犁,信義區,121.55762,25.034937,0.86,0.44,0.12,0.15,0.11,0.15,0.11,0,0.17,0.27,0.18,0.12,0.08,0.21,0.36,0.61,0.76,0.82
12,臺北醫學大學,信義區,121.561747,25.026679,0.31,0.58,0.46,0.52,0.33,0.35,0.33,0.58,0.67,0.9,0.54,0.12,0.35,0.55,0.33,0.61,0.63,0.72
13,福德公園,信義區,121.58367,25.03809,0.48,0.36,0.41,0.22,0.83,0.74,0.67,0.6,0.62,0.53,0.47,0.6,0.66,0.47,0.59,0.41,0.6,0.41
14,榮星花園,中山區,121.54037,25.06424,0.44,0.72,0.66,0.56,0.5,0.41,0.5,0.38,0.28,0.34,0.19,0.56,0.25,0.19,0.81,0.28,0.94,0.81
15,饒河夜市,松山區,121.571885,25.049845,0.71,0.25,0.37,0.39,0.37,0.28,0.22,0.17,0.23,0.25,0.28,0.25,0.5,0.75,0.7,0.88,0.83,0.87
16,松山家商,信義區,121.579135,25.036084,0.72,0.98,0.59,0.7,0.53,0.43,0.63,0.76,0.7,0.52,0.11,0.11,0.04,0.32,0.43,0.76,0.83,0.77
17,民生光復路口,松山區,121.55514,25.05862,0.25,0.44,0.81,0.45,0.39,0.27,0.42,0.35,0.29,0.21,0.41,0.32,0.36,0.27,0.24,0.15,0.21,0.21
18,臺北市藝文推廣處,松山區,121.552278,25.048268,0.32,0.37,0.29,0.26,0.29,0.16,0.13,0.39,0.55,0.45,0.74,0.58,0.76,0.97,0.58,0.37,0.32,0.29
19,象山公園,信義區,121.56981,25.02863,0.17,0.3,0.83,0.53,0.9,0,0.13,0.33,0.37,0.33,0.33,0.4,0.27,0.03,0,0.07,0.23,0.07
20,捷運科技大樓站,大安區,121.543293,25.025896,0.96,0.86,0.33,0,0.1,0.48,0.45,0.52,0.22,0.23,0.25,0.41,0.01,0.01,0.13,0.33,0.39,0.41
21,民生敦化路口,松山區,121.548982,25.057985,0.42,0.08,0.52,0.67,0.53,0.38,0.38,0.33,0.42,0.42,0.44,0.83,0.73,0.5,0.49,0.34,0.25,0.15
22,松山車站,信義區,121.57845,25.048824,0.5,0.25,0.43,0.48,0.52,0.7,0.8,0.64,0.36,0.52,0.18,0.8,0.16,0.57,0.42,0.5,0.05,0.3
23,東新國小,南港區,121.602798,25.055074,0.59,0.44,0.72,0.47,0.47,0.39,0.32,0.26,0.23,0.19,0.16,0.13,0.31,0.38,0.09,0.53,0.94,0.56
24,信義建國路口,大安區,121.53747,25.03293,0.84,0.8,0.23,0.27,0.34,0.25,0.23,0.56,0.33,0.27,0.42,0,0.24,0.37,0.5,0.87,0.65,0.63
25,永吉松信路口,信義區,121.57205,25.04543,0.63,0.73,0.97,0.9,0.7,0.3,0.03,0.27,0.37,0.57,0.73,0.5,1,0.2,0.33,0.4,0.57,0.5
26,捷運昆陽站(1號出口),南港區,121.592375,25.050142,0.1,0.5,0.56,0.62,0.64,0.43,0.31,0.19,0.52,0.57,0.52,0.71,0.1,0.05,0.29,0.22,0.29,0.12
27,捷運南港展覽館站(5號出口),南港區,121.61669,25.05469,0.19,0.55,0.33,0.33,0.26,0.57,0.57,0.88,0.5,0.4,0.45,0.45,0.12,0.32,0.21,0.12,0.02,0.26
28,五常公園,信義區,121.57467,25.04814,0.22,0.22,0.12,0.56,0.56,0.22,0.28,0.31,0.25,0.22,0.19,0.03,0.53,0.91,0.22,0.48,0.77,0.74
29,金山愛國路口,大安區,121.52655,25.03164,0.17,0.38,0.81,0.77,0.74,0.57,0.57,0.85,0.89,0.87,0.74,0.17,0,0.11,0.11,0.13,0,0
30,基隆長興路口,大安區,121.544352,25.017054,0.7,0.68,0.64,0.58,0.38,0.65,0.43,0.47,0.5,0.47,0.64,0.2,0.16,0.31,0.38,0.49,0.77,0.7
31,辛亥新生路口,大安區,121.53456,25.022413,0.2,0.27,0.07,0.1,0.13,0.13,0.4,0.5,0.5,0.73,0.45,0.28,0.14,0.48,0.38,0.07,0.03,0.21
32,捷運六張犁站,大安區,121.553161,25.023884,0.58,0.5,0.53,0.45,0.34,0.37,0.39,0.63,0.47,0.55,0.87,0.97,0.42,0.08,0.03,0.39,0.39,0.32
33,中崙高中,松山區,121.56087,25.04878,0.3,0.26,0.37,0.41,0.5,0.41,0.2,0.52,0.54,0.46,0.37,0.22,0.33,0.26,0.28,0,0.15,0.15
34,捷運行天宮站(1號出口),中山區,121.532934,25.058369,0.47,0.22,0.22,0.16,0.34,0.12,0.12,0.31,0.12,0.53,0.12,0.59,0.41,0.47,0.56,0.19,0.25,0.06
35,捷運行天宮站(3號出口),中山區,121.533302,25.059978,0.76,0.54,0.68,0.25,0.21,0.03,0.07,0.07,0.23,0.17,0.24,0.43,0.97,0.71,0.96,0.43,0.41,0.24
36,臺大資訊大樓,大安區,121.54153,25.02101,0.14,0.08,0.67,0.12,0.11,0.11,0,0.53,0.61,1,0.65,0.88,0.43,0.26,0.43,0.39,0.42,0.24
37,捷運東門站(4號出口),大安區,121.528988,25.0337,0.7,0.33,0.26,0.09,0.24,0.11,0.02,0.09,0.04,0.22,0.17,0.37,0.54,0.11,0.13,0.28,0.31,0.6
38,臺灣師範大學(圖書館),大安區,121.52889,25.02665,0.03,0.18,0.71,0.53,0.88,0.5,0.56,0.24,0.09,0.12,0.03,0.15,0.88,0.88,0.12,0.03,0.09,0.03
39,南港世貿公園,南港區,121.61422,25.058,0.15,0.31,0.65,0.73,0.38,0.38,0.5,0.73,0.69,0.69,0.5,0.85,0.08,0.19,0.04,0.23,0,0.15
40,玉成公園,南港區,121.5864,25.04287,0,0,0,0,0,0,0,0,0,0,0,0,0,0,0,0,0,0
41,中研公園,南港區,121.613706,25.047425,0.57,0.6,0.87,0.6,0.67,0.53,0.57,0.43,0.57,0.47,0.87,0,0.17,0.2,0.3,0.8,0.27,0.43
42,捷運後山埤站(1號出口),信義區,121.58174,25.04431,0.39,0.34,0.11,0.32,0.45,0.61,0.84,0.89,0.97,0.71,0.37,0.42,0.71,0.68,0.39,0.21,0.13,0.32
43,凌雲市場,南港區,121.614154,25.035639,0.39,0.19,0.14,0.11,0.03,0.17,0.11,0.08,0.08,0.08,0.19,0.14,0.39,0.42,0.53,0.36,0.36,0.44
44,捷運南港軟體園區站(2號出口),南港區,121.616187,25.05973,0.42,0.44,0.56,0.58,0.58,0.69,0.67,0.64,0.61,0.61,0.64,0.56,0.08,0.14,0.28,0.44,0.44,0.44
45,捷運公館站(2號出口),大安區,121.534538,25.01476,0.66,0,0,0,0.07,0.23,0.47,0.1,0.13,0.47,0.8,0.77,0.57,0.27,0.8,0.2,0.73,0.13
46,南港國小,南港區,121.611027,25.05646,0.09,0.18,0.77,0.79,0.65,0.77,0.63,0.64,0.61,0.55,0.95,0.75,0.07,0.07,0.02,0.23,0.14,0.16
47,捷運忠孝新生站(3號出口),大安區,121.533862,25.041924,0.72,0.44,0.03,0.36,0.31,0.22,0.06,0.31,0.25,0.19,0.17,0.31,0.33,0,0.06,0,0.22,0.64
48,南港車站(忠孝東路),南港區,121.608202,25.05247,0.63,0.71,0.13,0.13,0.24,0.18,0.26,0.13,0.16,0.18,0.18,0.66,0.66,0.61,0.61,0.47,0.39,0.26
49,龍門廣場,大安區,121.548252,25.040901,0.65,0.47,0.16,0.43,0.57,0.73,0.75,0.73,0.69,0.47,0.61,0.41,0.44,0.57,0.49,0.08,0.02,0.37
50,民權運動公園,松山區,121.560186,25.062002,0.34,0.42,0.34,0.3,0.3,0.33,0.29,0.27,0.27,0.27,0.27,0.14,0.02,0.06,0.02,0.14,0.22,0.26
51,建國農安街口,中山區,121.536775,25.065031,0.48,0.33,0.17,0.19,0.33,0.33,0.33,0.38,0.45,0.48,0.24,0.12,0.02,0.12,0.11,0.21,0.24,0.31
52,建國長春路口,中山區,121.536925,25.054761,0.1,0.1,0.77,0.5,0.43,0.27,0.4,0.43,0.5,0.73,0.6,0.33,0.23,0.03,0,0.07,0.1,0.33
53,八德市場,中山區,121.536609,25.044781,0.46,0.35,0.04,0.12,0.12,0.04,0.15,0.15,0.23,0.15,0.08,0.12,0.12,0.27,0.5,0.42,0.77,0.23
54,臺北市立圖書館(總館),大安區,121.538073,25.028798,0.7,0.03,0.13,0.2,0.34,0.1,0.03,0.3,0.37,0.4,0.07,0.1,0.37,0.6,0.2,0.63,1,0.67
55,臺北田徑場,松山區,121.549408,25.049505,0.37,0.48,0.76,0.85,0.63,0.54,0.52,0.65,0.82,0.78,0.78,0.73,0.52,0.41,0.22,0.04,0,0.17
56,仁愛林森路口,中正區,121.522334,25.038954,0.41,0.66,0.59,0.76,0.59,0.39,0.39,0.73,0.8,0.93,0.66,0.68,0.05,0.27,0.49,0.54,0.76,0.95
57,新生和平路口,大安區,121.53519,25.026217,0.13,0.35,0.74,0.63,0.52,0.57,0.43,0.43,0.5,0.37,0.35,0.04,0,0.22,0.54,0.76,0.37,0.39
58,捷運善導寺站(1號出口),中正區,121.5222,25.045267,0.28,0.5,0.65,0.54,0.59,0.59,0.63,0.59,0.46,0.54,0.8,0.59,0.5,0.3,0.39,0.48,0.46,0.43
59,林森公園,中山區,121.525805,25.052227,0.77,0.43,0.17,0.2,0.23,0.33,0.33,0.53,0.6,0.6,0.5,0.67,0.93,0.67,0.83,0.83,0.5,0.33
60,中山行政中心,中山區,121.533487,25.064317,0.41,0.28,0.24,0.48,0.48,0.54,0.61,0.66,0.52,0.55,0.38,0.21,0.72,0.28,0.21,0.55,0.86,0.59
61,台灣科技大學,大安區,121.539723,25.0131,0.26,0.11,0.3,0.17,0.17,0.07,0.37,0.41,0.17,0.78,0.54,0.52,0.04,0.04,0.02,0.17,0.3,0.35
62,南昌公園,中正區,121.520258,25.026827,0.38,0.29,0.59,0.59,0.56,0.56,0.38,0.32,0.35,0.15,0.03,0.68,0.09,0.24,0.24,0.06,0.12,0.26
63,仁愛醫院,大安區,121.545632,25.037569,0.06,0.39,0.37,0.5,0.17,0.06,0.33,0.53,0.53,0.61,0.64,0.72,0.58,0.19,0.92,0.44,0.44,0.36
64,國家圖書館,中正區,121.517029,25.037773,0.22,0.42,0.92,0.74,0.74,0.7,0.84,0.76,0.7,0.76,0.74,0.42,0.58,0.29,0.44,0.06,0.04,0.08
65,青年公園3號出口,萬華區,121.502708,25.022725,0.46,0.49,0.4,0.23,0.57,0.59,0.7,0.76,0.81,0.86,0.27,0.32,0.49,0.46,0.14,0.22,0.73,0.7
66,師範大學公館校區,文山區,121.537188,25.007528,0.5,0.6,0.48,0.31,0.5,0.48,0.31,0.43,0.4,0.38,0.17,0.19,0.1,0.07,0.05,0.31,0.36,0.26
67,捷運臺大醫院(4號出口),中正區,121.516428,25.042973,0.38,0.12,0.5,0.6,0.6,0.33,0.48,0.65,0.58,0.4,0.21,0.6,0.9,0.65,0.31,0,0,0.08
68,國興青年路口,萬華區,121.506536,25.025865,0.69,0.53,0.42,0.54,0.69,0.31,0.28,0.47,0.44,0.53,0.28,0.31,0.83,0.36,0.61,0.22,0.44,0.47
69,興豐公園,文山區,121.547778,24.999837,0.29,0.38,0.76,0.65,0.62,0.68,0.76,0.79,0.82,0.85,0.59,0.18,0.56,0.59,0.21,0.24,0.35,0.15
70,捷運台北101/世貿站,信義區,121.561645,25.032752,0.67,0.45,0.35,0.73,0.43,0.49,0.53,0.53,0.25,0.35,0.1,0.1,0.69,0.22,0.35,0.29,0,0.12
71,捷運信義安和站(4號出口),大安區,121.554204,25.032985,0.73,0.27,0.66,0.2,0.17,0.7,0.62,0.43,0.53,0.2,0,0.07,0.87,0.17,0.23,0.03,0.43,0.34
72,新生長安路口,中山區,121.529346,25.048611,0.33,0.21,0.14,0.07,0,0.29,0.43,0.38,0.31,0.31,0.26,0.26,0.64,0.74,0.55,0.43,0.45,0.43
73,酒泉延平路口,大同區,121.510195,25.072228,0.34,0.31,0.59,0.56,0.5,0.38,0.47,0.5,0.56,0.5,0.59,0.28,0.19,0.25,0.25,0.59,0.69,0.72
74,信義連雲街口,中正區,121.530547,25.033817,0.78,0.55,0.28,0.18,0.18,0.07,0.12,0.15,0.25,0.17,0.07,0.23,0.6,0.7,0.23,0.35,0.3,0.42
75,基隆光復路口,信義區,121.557635,25.0300508,0.57,0.33,0.57,0.5,0.4,0.43,0.43,0.2,0.3,0.17,0.23,0.63,0.37,0.1,0.3,0.5,0.67,0.59
76,新生長春路口,中山區,121.527522,25.056387,0.83,0.56,0.31,0.61,0.42,0.44,0.44,0.42,0.31,0.25,0.22,0.14,0.08,0.14,0.28,0.58,0.67,0.61
77,民生活動中心,松山區,121.56297,25.059147,0.65,0.87,0.97,0.48,0.48,0.26,0.55,0.65,0.74,0.74,0,0.29,0.22,0.5,0.19,0.31,0.47,0.69
78,捷運圓山站(2號出口),大同區,121.519287,25.071824,0.29,0.37,0.61,0.35,0.65,0.57,0.61,0.58,0.6,0.58,0.6,0.48,0.4,0.46,0.1,0,0.1,0.04
79,捷運民權西路站(3號出口),大同區,121.520205,25.061285,0.42,0.68,0.78,0.78,0.88,0.98,0.98,0.94,0.86,0.76,0.82,0.62,0.26,0.3,0.18,0.32,0.2,0.3
80,華江高中,萬華區,121.495869,25.02751,0.27,0.41,0.57,0.64,0.57,0.55,0.49,0.6,0.63,0.77,0.53,0.3,0.66,0.68,0.86,0.73,0.7,0.77
81,捷運台電大樓站(2號出口),大安區,121.528552,25.020547,0.48,0.15,0,0.18,0,0.12,0,0,0.06,0.12,0.35,0.12,0.5,0.71,0.53,0.47,0.74,0.32
82,捷運西門站(3號出口),中正區,121.508693,25.041778,0.71,0.63,0.58,0.61,0.53,0.47,0.63,0.61,0.73,0.78,0.56,0.78,0.56,0.53,0.29,0.22,0.03,0
83,捷運大安森林公園站,大安區,121.535161,25.033156,0.55,0.42,0.11,0.01,0.12,0,0.05,0.7,0.71,0.77,0.61,0.8,0.69,0.74,0.8,0.8,0.76,0.73
84,復華花園新城,萬華區,121.502899,25.029705,0.82,0.32,0.63,0.55,0.47,0.5,0.61,0.53,0.5,0.53,0.68,0.21,0.32,0.76,0.21,0.32,0.39,0.55
85,信義敦化路口,大安區,121.54911,25.033362,0.39,0.26,0.48,0.3,0.26,0.59,0.43,0.48,0.39,0.24,0.33,0.65,0.28,0.09,0.61,0.37,0.26,0.22
86,民權復興路口,松山區,121.545138,25.062344,0.14,0.08,0.08,0.11,0.25,0.36,0.39,0.36,0.33,0.33,0.33,0.31,0.28,0.11,0.31,0.64,1,0.64
87,捷運大安站,大安區,121.543057,25.033078,0.48,0,0.24,0,0.1,0.14,0,0.1,0.48,0.64,0,0,1,0.05,0.64,0.5,0.05,0
88,捷運象山站,信義區,121.57087,25.032922,0.72,0.16,0.02,0.05,0.03,0.08,0.26,0.45,0.4,0.56,0.65,1,0.87,0.63,0.61,0.55,0.37,0.26
89,和平重慶路口,中正區,121.516385,25.027323,0.82,0.61,0.18,0.14,0.16,0.02,0.05,0,0.02,0.05,0.16,0.18,0.16,0.52,0.23,0.3,0.55,0.59
90,老松國小,萬華區,121.501708,25.037783,0.52,0.4,0.21,0.07,0.18,0.14,0.2,0.27,0.27,0.05,0.18,0.11,0.45,0.41,0.32,0.59,0.67,0.71
91,市立美術館,中山區,121.523268,25.070629,0.64,0.64,0.97,0.72,0.78,0.78,0.67,0.86,0.81,0.64,0.61,0.36,0.64,0.53,0.47,0.5,0.47,0.47
92,開封西寧路口,萬華區,121.507169,25.046618,0.21,0.26,0.43,0.07,0.05,0.05,0.29,0.24,0.24,0.19,0.29,0.14,0.43,0.57,0.48,0.31,0.38,0.45
93,吳興公車總站,信義區,121.569836,25.023877,0.66,0.3,0.21,0.77,0.64,0.52,0.52,0.39,0.3,0.28,0.31,0.41,0.36,0.24,0.52,0.57,0.7,0.44
94,捷運景美站,文山區,121.541059,24.993254,0.67,0.22,0.39,0.45,0.39,0.25,0.1,0.39,0.45,0.54,0.62,0.42,0.71,0.87,0.44,0.88,0.29,0.37
95,東園國小,萬華區,121.497679,25.023393,0.43,0.36,0.43,0.41,0.25,0.22,0.12,0.19,0.25,0.12,0.22,0.25,0.97,0.59,0.31,0.44,0.66,0.62
96,三民公園,松山區,121.566558,25.061567,0.68,0.5,0.36,0.31,0.14,0.38,0.34,0.38,0.41,0.45,0.52,0.33,0.43,0.47,0.4,0.57,0.53,0.66
97,捷運劍潭站(2號出口),士林區,121.524721,25.082825,0.69,0.29,0.44,0.29,0.17,0.4,0.52,0.54,0.51,0.33,0.25,0.85,0.83,0.06,0.19,0.08,0,0.19
98,羅斯福景隆街口,文山區,121.540197,24.999378,0.43,0.38,0.33,0.43,0.36,0.21,0.31,0.43,0.45,0.45,0.55,0.55,0.46,0.33,0.48,0.64,0.6,0.69
99,捷運雙連站(2號出口),大同區,121.520711,25.057866,0.46,0.23,0.15,0.45,0.26,0.62,0.88,0.81,0.88,0.86,0.6,0.02,0.4,0.1,0.1,0,0.07,0.12
100,金山市民路口,中正區,121.530697,25.045753,0.41,0.44,0.23,0.1,0.21,0.13,0.05,0.1,0.41,0.15,0.08,0.21,0,0.12,0.1,0.03,0.05,0.28
101,華山文創園區,中正區,121.528487,25.043668,0.22,0.14,0.18,0.24,0.4,0.46,0.52,0.46,0.4,0.46,0.5,0.32,0.4,0.18,0.16,0.2,0.2,0.14
102,臺北市客家文化主題公園,中正區,121.525322,25.02043,0.31,0.12,0.09,0.06,0.06,0,0,0,0.09,0.12,0.03,0.09,0.03,0.06,0.06,0.34,0.53,0.28
103,萬華車站,萬華區,121.503028,25.033639,0.35,0.15,0.3,0.25,0.15,0.13,0.17,0.07,0.03,0.02,0.07,0.3,0.35,0.33,0.35,0.32,0.37,0.33
104,台北花木批發市場,文山區,121.54074,25.004023,0.39,0.89,0.58,0.5,0.42,0.39,0.26,0.18,0.11,0.29,0.26,0.39,0.32,0.58,0.24,0.29,0.29,0.5
105,峨嵋停車場,萬華區,121.505409,25.044412,0.17,0.07,0.24,0.24,0.31,0.17,0.1,0.19,0.19,0.14,0.21,0.14,0.02,0.24,0.19,0.17,0.12,0.05
106,西園艋舺路口,萬華區,121.497674,25.032932,0.45,0.45,0.36,0.25,0.2,0.25,0.25,0.25,0.2,0.25,0.43,0.48,0.66,0.57,0.64,0.64,0.59,0.57
107,捷運小南門站(1號出口),中正區,121.509422,25.036402,0.17,0.46,0.76,0.8,0.76,0.74,0.72,0.83,0.85,0.74,0.67,0.67,0.39,0.3,0.22,0.28,0.07,0.04
108,臺北孔廟,大同區,121.515843,25.073306,0.53,0.5,0.41,0.59,0.44,0.35,0.28,0.12,0.03,0.03,0.03,0.35,0.9,0.35,0.74,0.71,0.74,0.78
109,林安泰古厝,中山區,121.530805,25.071606,0.39,0.42,0.58,0.69,0.67,0.64,0.64,0.72,0.81,0.39,0.36,0.39,0.31,0.33,0.33,0.28,0.28,0.25
110,文湖國小,內湖區,121.560888,25.086376,0.89,0.57,0.3,0.57,0.41,0.77,0.82,0.8,0.61,0.59,0.48,0.45,0.23,0.18,0.23,0.48,0.82,0.55
111,捷運忠孝復興站(2號出口),大安區,121.543497,25.040184,0.85,0.57,0.74,0.54,0.46,0.46,0.72,0.37,0.15,0.13,0.19,0.35,0.31,0.46,0.56,0.22,0.31,0.3
112,捷運新北投站,北投區,121.503124,25.137456,0.64,0.53,0.38,0.23,0.47,0.51,0.36,0.45,0.38,0.17,0.11,0.02,0.35,0.45,0.43,0.42,0.56,0.6
113,仁愛逸仙路口,信義區,121.561178,25.037724,0.69,0.58,0.81,0.74,0.69,0.33,0.25,0.25,0.31,0.17,0.11,0.19,0.03,0,0.22,0.54,0.49,0.46
114,蘭雅公園,士林區,121.530386,25.109908,0.34,0.21,0.38,0.24,0.41,0.14,0.07,0.45,0.52,0.93,0.14,0.21,0.68,0.68,0.54,0,0.04,0.11
115,臺北轉運站,中正區,121.520526,25.048222,0.54,0.37,0.25,0.34,0.4,0.32,0.25,0.24,0.34,0.34,0.46,0.66,0.66,0.57,0.49,0.76,0.28,0.22
116,福林公園,士林區,121.530215,25.096122,0.33,0.28,0.19,0.26,0.3,0.33,0.37,0.4,0.44,0.44,0.44,0.42,0.42,0.49,0.3,0.26,0.26,0.23
117,捷運北投站,北投區,121.498618,25.132581,0.5,0.17,0.64,0.21,0.28,0.43,0.76,0.59,0.57,0.64,0.45,0.62,0.67,0.57,0.53,0.31,0.33,0.12
118,大業大同街口,北投區,121.499152,25.136929,0.47,0.33,0,0.42,0.31,0.47,0.36,0.22,0.22,0.19,0.28,0.31,0.39,0.67,0.28,0.47,0.78,0.89
119,捷運劍南路站(2號出口),中山區,121.555116,25.08418,0.04,0.29,0.48,0,0.11,0.27,0.34,0.52,0.55,0.39,0.48,0.21,0.49,0.3,0.16,0,0,0.02
120,捷運龍山寺站(1號出口),萬華區,121.50026,25.035479,0.67,0.57,0.59,0.87,0.11,0.28,0.26,0.09,0.22,0.27,0.47,0.42,0.11,0.29,0.11,0.18,0.07,0
121,龍江南京路口,中山區,121.540568,25.05298,0.2,0.38,0.55,0.48,0.65,0.7,0.66,0.67,0.67,0.77,0.77,0.61,0.26,0.27,0.15,0.06,0.05,0.11
122,捷運港墘站(2號出口),內湖區,121.57584,25.079666,0.64,0.34,0.02,0,0,0.1,0.02,0,0,0,0.1,0.48,0.88,0.6,0.42,0.46,0.3,0.26
123,天母運動公園,士林區,121.534136,25.116325,0.52,0.43,0.5,0.66,0.64,0.52,0.48,0.55,0.57,0.61,0.55,0.57,0.41,0.41,0.55,0.64,0.66,0.73
124,振華公園,北投區,121.518163,25.115863,0.6,0.31,0.17,0.14,0.14,0.14,0.17,0.11,0.06,0.06,0.09,0.06,0.29,0.23,0.4,0.4,0.31,0.29
125,華西公園,萬華區,121.498495,25.038609,0.6,0.33,0.17,0.1,0.13,0.1,0.1,0.1,0.17,0.13,0.07,0.27,0.57,0.87,0.9,0.43,0.83,0.77
126,敦化基隆路口,大安區,121.548336,25.022073,0.2,0.37,0.4,0.37,0.5,0.33,0.13,0.63,0.7,0.47,0.4,0.72,0,0.37,0.23,0.07,0.03,0.1
127,東湖國中,內湖區,121.619521,25.073277,0.3,0.33,0.42,0.33,0.33,0.23,0.05,0.12,0.12,0.15,0.12,0.03,0.2,0.42,0.15,0.17,0.28,0.33
128,成功國宅,大安區,121.546726,25.026808,0.73,0.42,0.65,0.5,0.24,0.54,0.11,0.03,0,0.08,0,0.22,0.44,0.56,0.47,0.22,0.56,0.58
129,捷運文德站(2號出口),內湖區,121.58456,25.078424,0.9,0.63,0.02,0.12,0.16,0.18,0.29,0.1,0.06,0.1,0.18,0.32,0.66,0.66,0.66,0.8,0.78,0.84
130,羅斯福寧波東街口,中正區,121.519411,25.031445,0.62,0.73,0.42,0.62,0.81,0.62,0.81,0.62,0.54,0.54,0.5,0.04,0.12,0.81,0.31,0.08,0,0.08
131,洲子二號公園,內湖區,121.568688,25.079322,0.21,0.18,0.26,0.62,0.59,0.41,0.44,0.53,0.65,0.53,0.65,0.62,0.19,0.06,0.09,0,0.03,0.41
132,羅斯福新生南路口,大安區,121.5331757,25.01603085,0.78,0.4,0,0,0.02,0.09,0.07,0,0.01,0.06,0.29,0.39,0.54,0.56,0.71,0.55,0.42,0.62
133,蘭興公園,士林區,121.525888,25.111839,0.6,0.53,0.3,0.25,0.3,0.2,0.35,0.4,0.45,0.05,0.07,0.1,0.1,0.38,0.3,0.75,0.23,0.53
134,捷運芝山站(2號出口),士林區,121.522629,25.10336,0.41,0.44,0.08,0.35,0.35,0.46,0.83,0.75,0.52,0.39,0.48,0.84,0.57,0.52,0.22,0.03,0.02,0.16
135,捷運石牌站(2號出口),北投區,121.515677,25.114513,0.3,0.43,0.53,0.58,0.55,0.6,0.47,0.55,0.83,0.36,0.36,0.57,0.13,0.11,0.22,0,0,0.26
136,國立臺北護理健康大學,北投區,121.517512,25.118049,0.33,0.13,0.27,0.43,0.43,0.37,0.63,0.9,0.6,0.37,0.21,0.5,0.3,0.23,0.43,0.33,0.3,0.27
137,國防大學,北投區,121.493066,25.137976,0.46,0.48,0.41,0.43,0.39,0.39,0.41,0.43,0.41,0.43,0.39,0.39,0.22,0.3,0.33,0.52,0.52,0.61
138,捷運永春站(2號出口),信義區,121.575372,25.040558,0.47,0.77,0.07,0.03,0.4,0.47,0.8,0.57,0.73,0.8,0.53,0.6,0.77,0.77,0.17,0.37,0.17,0.73
139,永樂市場,大同區,121.510549,25.054501,0.29,0.24,0.79,0.42,0.61,0.37,0.5,0.11,0.55,0.65,0.89,0.55,0.53,0.34,0.16,0.05,0.26,0.26
140,捷運大橋頭站(2號出口),大同區,121.512909,25.063404,0.26,0.43,0.3,0.46,0.67,0.7,0.7,0.76,0.76,0.78,0.59,0.22,0.39,0.65,0.7,0.74,0.7,0.5
141,文山行政中心,文山區,121.569984,24.989902,0.36,0.36,0.47,0.44,0.39,0.47,0.42,0.36,0.39,0.44,0.44,0.28,0.44,0.44,0.17,0.22,0.25,0.22
142,捷運木柵站,文山區,121.574214,24.997747,0.4,0.37,0.37,0.42,0.44,0.35,0.35,0.35,0.31,0.6,0.52,0.27,0.25,0.17,0.27,0.19,0.12,0.31
143,捷運動物園站(2號出口),文山區,121.578752,24.997659,0.11,0.08,0.21,0.38,0.39,0.41,0.42,0.41,0.41,0.33,0.33,0.32,0.21,0.15,0.18,0.17,0,0.11
144,國立政治大學,文山區,121.576536,24.988363,0.3,0.35,0.42,0.2,0.2,0.25,0.26,0.26,0.28,0.29,0.28,0.13,0.25,0.39,0.35,0.25,0.24,0.3
145,樹德公園,大同區,121.516149,25.066688,0.6,0.42,0.28,0.2,0.38,0.35,0.42,0.42,0.42,0.53,0.38,0.15,0.12,0.2,0.3,0.3,0.5,0.7
146,捷運士林站(2號出口),士林區,121.526556,25.092546,0.41,0.43,0.09,0.09,0.54,0.52,0.52,0.57,0.59,0.37,0.37,0.43,0.71,0.64,0.47,0.02,0.13,0.31
147,士林運動中心,士林區,121.521814,25.089175,0.56,0.44,0.53,0.88,0.69,0.53,0.69,0.38,0.41,0.62,0.91,0.5,0.78,0.56,0.66,0.41,0.19,0.69
148,捷運明德站,北投區,121.518316,25.110331,0.46,0.32,0.18,0.22,0.29,0.16,0.16,0.1,0.1,0.38,0.32,0.34,0.4,0.51,0.5,0.4,0.4,0.26
149,北投運動中心,北投區,121.509621,25.116665,0.76,0.23,0.13,0.06,0.02,0.16,0.24,0.11,0.19,0.28,0.39,0.21,0.56,0.42,0.32,0.29,0.44,0.52
150,松德公園,信義區,121.57343,25.036568,0.32,0.55,0.89,0.76,0.74,0.58,0.45,0.61,0.82,0.87,0.66,0.45,0,0.11,0.03,0.45,0.79,0.61
151,考試院,文山區,121.549827,24.987507,0.41,0.32,0.53,0.35,0.24,0.35,0.32,0.29,0.35,0.35,0.24,0.09,0.15,0.15,0.21,0.35,0.59,0.68
152,百齡國小,士林區,121.519175,25.08521,0.5,0,0.47,0.88,0.95,0.68,0.33,0.2,0.28,0.28,0.33,0.26,0.33,0.38,0.42,0.28,0.25,0.7
153,蔣渭水紀念公園,大同區,121.516299,25.059885,0.67,0.67,0.5,0.36,0.17,0.11,0.08,0.14,0.11,0.03,0.06,0.2,0.41,0.26,0.4,0.34,0.6,0.72
154,中正基河路口,士林區,121.519867,25.093396,0.39,0.53,0.75,0.78,0.81,0.53,0.36,0.42,0.64,0.75,0.83,0.61,0.57,0.38,0.3,0.49,0.65,0.73
155,瑞光港墘路口,內湖區,121.57505,25.076193,0.37,0.63,0.43,0.13,0,0.4,0.27,0.37,0.37,0.47,0.43,0,0,0.07,0.1,0.17,0.07,0
156,東湖國小,內湖區,121.61538,25.06853,0.35,0.3,0.24,0.19,0.16,0.19,0.28,0.38,0.54,0.16,0.11,0.11,0.61,0.39,0.44,0.25,0.19,0.22
157,麗山國小,內湖區,121.571467,25.082703,0.43,0.33,0.17,0.1,0.05,0.1,0.17,0.07,0.1,0.21,0.19,0.17,0.31,0.26,0.26,0.24,0.36,0.43
158,捷運東湖站,內湖區,121.61355,25.067026,0.3,0.55,0.79,0.94,0.7,0.62,0.72,0.64,0.57,0.51,0.26,0.19,0.21,0.19,0.02,0.19,0,0.17
159,捷運西湖站(1號出口),內湖區,121.566695,25.082866,0.49,0.69,0.31,0,0.15,0.17,0.2,0.06,0.09,0.11,0.17,0.31,0.33,0.14,0.14,0.08,0,0.03
161,大豐公園,北投區,121.503768,25.131143,0.64,0.64,0.6,0.62,0.55,0.58,0.56,0.45,0.45,0.5,0.14,0.04,0.2,0.48,0.64,0.45,0.62,0.73
162,捷運中山國小站(4號出口),中山區,121.52772,25.062924,0.66,0.66,0.43,0.31,0.31,0.27,0.19,0.1,0.01,0.01,0.17,0.17,0.17,0.26,0.27,0.29,0.46,0.43
163,捷運麟光站2號出口,大安區,121.559279,25.018097,0.7,0.59,0.45,0.55,0.32,0.29,0.3,0.26,0.19,0.19,0.2,0.13,0.43,0.55,0.41,0.48,0.64,0.67
164,捷運奇岩站,北投區,121.500801,25.126286,0.36,0.4,0.47,0.65,0.33,0.59,0.45,0.54,0.48,0.7,0.68,0.68,0.39,0.21,0.3,0.18,0.29,0.12
165,捷運唭哩岸站(2號出口),北投區,121.505693,25.120788,0.16,0.16,0.26,0.13,0.1,0.03,0.03,0.1,0.1,0.03,0.06,0.11,0.06,0.02,0.05,0.34,0.35,0.32
166,臺北市立景美女中,文山區,121.556177,24.980602,0.35,0.38,0.5,0.32,0.5,0.5,0.53,0.68,0.71,0.71,0.59,0.26,0.85,0.79,0.12,0.09,0.29,0.47
167,臺北市立天文館,士林區,121.518046,25.095714,0.2,0.31,0.67,0.62,0.64,0.59,0.73,0.86,0.86,0.92,0.82,0.53,0.31,0.29,0.31,0.29,0.33,0.35
168,河堤國小,中正區,121.522855,25.02288,0.7,0.4,0,0.02,0.02,0.07,0.05,0.11,0.11,0.18,0.23,0.43,0.18,0.3,0.36,0.57,0.7,0.77
169,植物園,中正區,121.509813,25.030015,0.34,0.41,0.89,0.57,0.55,0.39,0.36,0.34,0.36,0.52,0.52,0.02,0.14,0.11,0.16,0.36,0.55,0.64
170,新東公園,松山區,121.568883,25.059245,0.72,0.68,0.62,0.64,0.66,0.59,0.51,0.37,0.41,0.43,0.49,0.43,0.38,0.28,0.48,0.57,0.64,0.74
171,文山運動中心,文山區,121.559651,24.996842,0.16,0.16,0.13,0.11,0.08,0.18,0.18,0.16,0.16,0.26,0.05,0.05,0.24,0.18,0.32,0.24,0.26,0.26
172,捷運南京三民站(1號出口),松山區,121.562891,25.051562,0.54,0.38,0.75,0.46,0.17,0.88,0.38,0.46,0.58,0.08,0.5,0.48,0,0.12,0.12,0,0.33,0.38
173,捷運松江南京站(7號出口),中山區,121.533211,25.052181,0.68,0.61,0.29,0.04,0.25,0.43,0.46,0.45,0.36,0.23,0.55,0.56,0.68,0.64,0.3,0.32,0.46,0.36
174,捷運小巨蛋站(5號出口),松山區,121.553057,25.051702,0.75,0.44,0.04,0.21,0.23,0.47,0.4,0.4,0.46,0.41,0.78,1,0.58,0.62,0.26,0.12,0,0.17
175,捷運南京復興站(5號出口),松山區,121.544847,25.051618,0.42,0.5,0.1,0.08,0.08,0.29,0.12,0.58,0.48,0.77,0.38,0.24,0.04,0.06,0.04,0,0.02,0.02
176,興安華城,中山區,121.542318,25.055997,0.55,0.38,0.15,0.06,0.09,0.03,0.03,0.01,0.06,0.09,0.19,0.22,0.18,0.27,0.39,0.55,0.67,0.71
177,葫蘆國小,士林區,121.507495,25.082538,0.64,0.38,0.36,0.33,0.31,0.23,0.31,0.21,0.21,0.18,0.15,0.1,0.33,0.35,0.53,0.45,0.6,0.62
178,延平國宅,士林區,121.510306,25.078908,0.45,0.19,0.13,0.29,0.29,0.29,0.35,0.19,0.19,0.16,0.19,0.22,0.44,0.56,0.22,0.53,0.66,0.81
179,南港公園,南港區,121.59073,25.041355,0.59,0.31,0.06,0.43,0.41,0.38,0.48,0.42,0.46,0.44,0.5,0.1,0.15,0.52,0.12,0.19,0.4,0.44
180,福華商場,內湖區,121.592654,25.06877,0.41,0.49,0.47,0.45,0.45,0.47,0.47,0.45,0.45,0.47,0.5,0.42,0.4,0.42,0.42,0.5,0.47,0.53
181,建國和平路口,大安區,121.537383,25.02585,0.14,0.1,0.41,0.69,0.35,0.37,0.38,0.44,0.56,0.46,0.1,0.19,0.29,0.63,0.56,0.21,0.17,0.15
182,捷運古亭站(2號出口),中正區,121.523537,25.0253,0.15,0.33,0.81,0.73,0.46,0.46,0.71,0.62,0.41,0.37,0,0.16,0.22,0.06,0.02,0,0.08,0.04
183,圓環站,大同區,121.514179,25.05379,0.62,0.88,0.53,0.44,0.34,0.34,0.22,0.19,0.12,0.03,0.06,0.09,0.22,0.12,0.28,0.56,0.94,1
184,劍潭社區,中山區,121.537892,25.084759,0.74,0.71,0.64,0.64,0.62,0.62,0.6,0.62,0.64,0.57,0.6,0.55,0.55,0.6,0.62,0.67,0.74,0.76
185,?公公園,大安區,121.54605,25.042342,0.68,0.57,0.52,0.22,0.25,0.32,0.39,0.29,0.21,0.21,0.29,0.89,0.61,0.57,0.46,0.07,0.46,0.07
186,臺北市立大學,中正區,121.514218,25.035414,0.1,0.19,0.44,0.5,0.4,0.47,0.39,0.45,0.41,0.4,0.39,0.22,0.01,0.13,0.1,0,0.04,0.02
187,仁愛延吉街口,大安區,121.555769,25.037465,0.21,0.35,0.79,0.76,0.52,0.48,0.39,0.03,0.21,0.18,0,0.12,0.06,0.06,0.09,0.15,0.24,0.24
188,社子國小,士林區,121.50189,25.090293,0.52,0.46,0.41,0.43,0.46,0.45,0.45,0.48,0.46,0.45,0.45,0.45,0.62,0.64,0.7,0.41,0.48,0.54
189,金瑞公園(金龍路),內湖區,121.58781,25.087987,0.79,0.42,0.37,0.32,0.39,0.39,0.39,0.45,0.45,0.37,0.34,0.24,0.58,0.68,0.21,0.79,0.63,0.74
190,捷運大直站(3號出口),中山區,121.546683,25.079278,0.53,0.57,0.4,0.23,0.1,0.2,0.2,0.28,0.23,0.2,0.25,0,0.2,0.1,0.2,0,0.2,0
191,捷運大湖公園站(2號出口),內湖區,121.60206,25.083873,0.19,0.17,0.14,0.14,0.12,0.12,0.14,0.16,0.14,0.17,0.12,0.09,0.07,0.1,0.07,0.05,0.03,0.03
192,捷運葫洲站(1號出口),內湖區,121.607955,25.072485,0.25,0.18,0.09,0.09,0.11,0.21,0.19,0.28,0.23,0.3,0.23,0.16,0.05,0.09,0.05,0.07,0.12,0.12
193,舊莊區民活動中心,南港區,121.61935,25.041277,0.62,0.38,0.26,0.32,0.35,0.47,0.38,0.35,0.35,0.26,0.15,0.06,0.24,0.33,0.39,0.61,0.7,0.7
194,市民林森路口,中山區,121.524388,25.047958,0.32,0.38,0.42,0.48,0.54,0.48,0.54,0.56,0.64,0.6,0.58,0.28,0.02,0.04,0.42,0.54,0.54,0.5
195,信義杭州路口(中華電信總公司),中正區,121.523987,25.035851,0.3,0.26,0.66,0.56,0.66,0.46,0.26,0.5,0.6,0.6,0.66,0.22,0.14,0.06,0.02,0.06,0.12,0.16
196,新湖國小,內湖區,121.589233,25.068744,0.38,0.46,0.25,0.21,0.12,0.38,0.33,0.17,0.26,0.33,0.25,0.29,0.12,0.12,0.12,0.29,0.5,0.42
197,饒河夜市(八德路側),松山區,121.571885,25.049845,0.27,0.18,0.15,0.12,0.09,0.35,0.38,0.29,0.24,0.29,0.21,0.03,0.26,0.44,0.5,0.5,0.41,0.38
201,東陽公園,南港區,121.597924,25.057164,0.25,0.32,0.57,0.66,0.7,0.34,0.23,0.39,0.48,0.32,0.34,0.2,0.05,0.14,0.27,0.41,0.61,0.61
202,捷運關渡站,北投區,121.467336,25.124646,0.46,0.46,0.58,0.32,0.17,0.24,0.25,0.25,0.25,0.3,0.15,0.25,0.18,0.25,0.15,0.22,0.24,0.24
203,古亭國中,萬華區,121.51057,25.024487,0.68,0.65,0.45,0.45,0.38,0.38,0.45,0.47,0.57,0.57,0.5,0.1,0.2,0.17,0.23,0.42,0.65,0.75
204,臺北市立大學(天母校區),士林區,121.53742,25.113625,0.52,0.5,0.59,0.57,0.5,0.45,0.45,0.4,0.36,0.38,0.36,0.1,0.38,0.64,0.33,0.52,0.55,0.57
205,木柵光輝路口,文山區,121.55561,24.988241,0.68,0.5,0.39,0.39,0.36,0.32,0.29,0.29,0.21,0.18,0.29,0.21,0.36,0.54,0.57,0.29,0.39,0.46
206,捷運辛亥站,文山區,121.55716,25.005386,0.19,0.41,0.38,0.47,0.69,0.53,0.47,0.5,0.48,0.42,0.34,0.28,0.03,0.38,0.41,0.53,0.56,0.59
207,福安國中,士林區,121.487477,25.103242,0.31,0.31,0.38,0.38,0.41,0.41,0.34,0.41,0.41,0.41,0.38,0.38,0.38,0.41,0.41,0.48,0.07,0.07
208,龍山國小,萬華區,121.495342,25.035555,0.57,0.43,0.26,0.22,0.2,0.2,0.11,0.24,0.22,0.17,0.15,0.13,0.17,0.15,0.22,0.26,0.41,0.54
209,捷運復興崗站,北投區,121.486071,25.137837,0.12,0.1,0.17,0.19,0.14,0.24,0.21,0.17,0.14,0.1,0.14,0.12,0.1,0.36,0.31,0.43,0.36,0.1
210,樂群二敬業四路口,中山區,121.558135,25.079766,0.55,0.47,0.07,0.35,0.32,0.18,0.17,0.07,0.15,0.23,0.13,0.28,0.27,0.17,0.23,0.35,0.37,0.62
211,星雲金湖街口,內湖區,121.597339,25.080915,0.45,0.33,0.12,0.05,0.38,0.33,0.28,0.31,0.33,0.36,0.38,0.38,0.42,0.33,0.17,0.3,0.23,0.28
212,北安大直街口,中山區,121.549452,25.084223,0.31,0.2,0.39,0.39,0.41,0.37,0.43,0.35,0.39,0.45,0.39,0.35,0.41,0.45,0.41,0.43,0.35,0.33
213,蘭雅國小,士林區,121.523107,25.107782,0.03,0.23,0.07,0.07,0,0,0,0.2,0.07,0.17,0.13,0.13,0.07,0.21,0.45,0.41,0.21,0.34
214,基河一期國宅,內湖區,121.578645,25.055935,0.22,0.17,0.19,0.26,0.22,0.22,0.24,0.26,0.24,0.2,0.15,0.2,0.02,0.09,0.04,0.06,0.04,0.13
215,捷運北門站(3號出口),大同區,121.510367,25.04993,0.59,0.49,0.36,0.46,0.46,0.31,0.33,0.31,0.74,0.77,0.49,0.43,0.38,0.26,0.23,0.62,0.54,0.49
216,培英公園,中山區,121.544601,25.082553,0.56,0.61,0.71,0.69,0.67,0.67,0.73,0.76,0.71,0.65,0.63,0.39,0.14,0.04,0.3,0.08,0.18,0.26
217,臺北花市,內湖區,121.574267,25.062645,0.25,0.53,0.75,0.38,0.42,0.45,0.53,0.6,0.5,0.4,0.42,0.35,0.64,0.5,0.4,0.18,0.03,0.03
218,松山高中,信義區,121.564108,25.043299,0,0,0,0,0,0,0,0,0,0,0,0,0,0,0,0,0,0
219,大理高中,萬華區,121.49074,25.031147,0.29,0.42,0.55,0.47,0.47,0.08,0.05,0.53,0.45,0.29,0.26,0.05,0.05,0.18,0.39,0.68,1,0.24
220,大稻埕公園,大同區,121.510512,25.059162,0.49,0.17,0.34,0.54,0.29,0.2,0.17,0.14,0.17,0.22,0.25,0.08,0.06,0.03,0,0.11,0.28,0.39
221,泰和公園,信義區,121.57107,25.019276,0.3,0.7,0.5,0,0.03,0.53,0.4,0.3,0.33,0.15,0.25,0.23,0.55,0.12,0.36,0.64,0.54,0.46
222,撫順公園,中山區,121.522065,25.064108,0.62,0.24,0.66,0.34,0.52,0.41,0.52,0.41,0.59,0.24,0.07,0.03,0.67,0.77,0.3,0.93,0.4,0.4
223,清江國小,北投區,121.507267,25.1274,0.51,0.15,0.53,0.6,0.7,0.23,0.15,0.28,0.23,0,0.07,0,0.25,0.55,0.62,0.6,0.8,0.9
224,社正公園,士林區,121.510535,25.088243,0.35,0.3,0.25,0.17,0.15,0.12,0.15,0.2,0.1,0.17,0.2,0.35,0.47,0.42,0.62,0.42,0.45,0.42
225,臥龍樂業街口,大安區,121.554839,25.0186,0.7,0.82,0.42,0.62,0.53,0.6,0.6,0.53,0.5,0.47,0.5,0.47,0.53,0.1,0.33,0.28,0.6,0.6
226,向陽南港路口,南港區,121.594228,25.054365,0.19,0.41,0.75,0.34,0.5,0.41,0.34,0.34,0.31,0.56,0.62,0.84,0.03,0.03,0.22,0.31,0.34,0.47
227,麗山高中,內湖區,121.57668,25.084244,0.6,0.65,0.4,0.12,0.12,0.03,0.1,0.17,0.17,0.17,0.23,0.23,0.38,0.47,0.67,0.41,0.54,0.56
228,捷運萬芳社區站,文山區,121.567474,24.998956,0.07,0.6,0.67,0.63,0.63,0.63,0.6,0.57,0.57,0.53,0.6,0.23,0.27,0.07,0.53,0.67,0.57,0.57
229,市民太原路口,大同區,121.514611,25.049394,0.35,0.56,0.12,0.03,0.12,0.03,0.12,0.03,0.06,0.12,0.15,0.18,0.15,0,0.09,0,0.03,0.06
230,湖光國宅,內湖區,121.580811,25.075366,0.65,0.66,0.4,0.2,0.23,0.2,0.14,0.06,0.03,0.14,0.09,0.03,0.31,0.37,0.43,0.51,0.74,0.89
231,內政部營建署,松山區,121.545022,25.047805,0.28,0.64,0.87,0.49,0.41,0.36,0.33,0.49,0.38,0.18,0.33,0.6,0.57,0.57,0.47,0.47,0.47,0.55
232,中山天母路口,士林區,121.529738,25.118843,0.21,0.02,0.09,0.09,0.19,0.33,0.26,0.35,0.35,0.37,0.3,0.23,0.36,0.3,0.36,0.34,0.42,0.33
233,捷運忠義站,北投區,121.474155,25.131411,0.3,0.32,0.3,0.3,0.28,0.28,0.28,0.22,0.26,0.34,0.36,0.32,0.22,0.24,0.24,0.22,0.2,0.2
234,永欣綠地,北投區,121.526071,25.124162,0.61,0.47,0.32,0.21,0.21,0.24,0.21,0.03,0.03,0.03,0.03,0.03,0.32,0.21,0.21,0.3,0.27,0.29
235,市民東興路口,松山區,121.565928,25.04846,0.5,0.63,0.73,0.4,0.4,0.33,0.3,0.33,0.23,0.4,0.2,0.13,0.07,0.77,0.6,0.6,0.27,0.23
236,關渡自然公園,北投區,121.469138,25.119292,0.61,0.22,0.03,0.14,0.08,0.06,0.06,0.03,0,0.03,0.08,0.03,0.56,0.19,0.58,0.83,0.58,0.67
237,文山第二行政中心,文山區,121.551418,25.001149,0.59,0.47,0.34,0.26,0.5,0.42,0.47,0.53,0.58,0.66,0.71,0.66,0.39,0.24,0.18,0.13,0.47,0.38
238,瑞湖陽光街口,內湖區,121.575965,25.073119,0.38,0.34,0.66,0.56,0.47,0.16,0.22,0.31,0.25,0.12,0.16,0.62,0,0,0.09,0.06,0.03,0.03
239,新明路321巷口,內湖區,121.584098,25.056687,0.23,0.31,0.42,0.33,0.29,0.25,0.29,0.27,0.25,0.25,0.23,0.27,0.29,0.21,0.21,0.15,0.17,0.19
240,南京建國路口,中山區,121.536802,25.052141,0.17,0.33,0.97,0.69,0.64,0.62,0.69,0.86,0.6,0.74,0.79,1,0.66,0.5,0.47,0.28,0.12,0.02
241,林口公園,信義區,121.579146,25.038943,0.63,0.5,0.76,0.55,0.5,0.76,0.89,0.71,0.47,0.5,0.61,0.3,0.87,0.16,0.45,0.82,0.71,0.84
242,關渡宮,北投區,121.463161,25.117472,0.3,0.23,0.25,0.17,0.3,0.2,0.25,0.28,0.23,0.2,0.1,0.07,0.1,0.07,0.1,0.2,0.23,0.23
243,社子公園,士林區,121.506219,25.090202,0.53,0.47,0.33,0.37,0.4,0.4,0.5,0.77,0.3,0.33,0.27,0.4,0.23,0.23,0.27,0.37,0.37,0.37
244,復興市民路口,中山區,121.543736,25.045908,0.58,0.31,0.62,0.82,0.8,0.89,0.69,0.6,0.58,0.53,0.56,0.33,0.56,0.18,0.5,0.36,0.07,0.07
245,捷運中山國中站,中山區,121.544028,25.060632,0.3,0.51,0.3,0.16,0.44,0.47,0.36,0.34,0.75,0.75,0.55,0.02,0.3,0.07,0,0.07,0.07,0.02
246,國立故宮博物院,士林區,121.548086,25.098743,0.15,0.2,0.23,0.23,0.25,0.26,0.24,0.24,0.24,0.24,0.18,0,0.05,0.05,0.08,0.13,0.08,0.08
247,木柵公園,文山區,121.560627,24.987144,0.41,0.26,0.24,0.29,0.35,0.32,0.35,0.32,0.24,0.26,0.26,0.12,0.15,0.18,0.32,0.32,0.29,0.29
248,喬治工商,大安區,121.555566,25.027123,0.41,0.78,0.47,0.53,0.28,0.28,0.12,0.06,0.16,0.44,0.62,0.41,0.56,0.62,0.47,0.34,0.69,0.53
249,中華桂林路口,萬華區,121.506624,25.037706,0.59,0.47,0.28,0.34,0.41,0.35,0.13,0.13,0.23,0.19,0.03,1,0.68,0.45,0.48,0.55,0.52,0.68
250,忠孝東路三段217巷口,大安區,121.539873,25.04184,0.94,0.86,0.6,0.65,0.6,0.6,0.57,0.71,0.4,0.56,0.58,0.56,0.03,0.11,0.11,0.03,0.11,0.22
251,華齡公園,士林區,121.520692,25.083023,0.56,0.31,0.47,0.39,0.19,0.25,0.14,0.11,0.14,0.19,0.22,0.39,0.28,0.36,0.31,0.31,0.44,0.47
252,大安運動中心,大安區,121.545608,25.020544,0.29,0.44,0.38,0.32,0.47,0.5,0.24,0.5,0.76,0.41,0.32,0.29,0.74,0.5,0.15,0.21,0.06,0.12
253,芝山抽水站,士林區,121.52799,25.101423,0.64,0.55,0.45,0.33,0.32,0.32,0.29,0.26,0.21,0.18,0.21,0.15,0.12,0.09,0.21,0.41,0.36,0.39
254,立功立德路口,北投區,121.471482,25.125377,0.45,0.88,0.12,0.47,0.53,0.44,0.26,0.41,0.44,0.68,0.68,0.18,0.53,0.26,0.09,0.03,0.35,0.32
255,光復南路22巷口,松山區,121.557674,25.046914,0.53,0.03,0.83,0.63,0.83,0.3,0.33,0.23,0.37,0.3,0.57,0.57,0.27,0,0.1,0.27,0.87,0.53
256,中山中正路口,士林區,121.527526,25.096507,0.42,0.4,0.35,0.35,0.3,0.23,0.28,0.38,0.38,0.28,0.25,0.35,0.45,0.5,0.45,0.4,0.4,0.42
257,錦德公園,萬華區,121.492637,25.023316,0.67,0.81,0.64,0.59,0.5,0.44,0.41,0.12,0.09,0.12,0.21,0.15,0.3,0.64,0.06,0.58,0.76,0.56
258,聯合醫院中興院區,大同區,121.507979,25.052096,0.23,0.25,0.3,0.45,0.6,0.47,0.5,0.57,0.62,0.7,0.6,0.77,0.46,0.55,0.53,0.6,0.65,0.72
259,南京遼寧街口,中山區,121.542168,25.051761,0.37,0.29,0.06,0.14,0.06,0.03,0.11,0.43,0.49,0.34,0.17,0.21,0.06,0.22,0.17,0.03,0.06,0.11
260,民權瑞光路口,內湖區,121.583991,25.068616,0.37,0.29,0.26,0.26,0.29,0.26,0.17,0.54,0.51,0.56,0.56,0.47,0.23,0.06,0.14,0.2,0.17,0.14
261,健康新城,松山區,121.560928,25.054095,0.74,0.55,0.36,0.17,0.07,0.05,0.12,0.12,0.05,0.14,0.35,0.23,0.63,0.6,0.21,0.4,0.56,0.77
262,永安藝文館-表演36房,文山區,121.569064,24.984144,0.75,0.75,0.43,0.57,0.46,0.43,0.39,0.32,0.36,0.25,0.18,0.36,0.29,0.57,0.5,0.25,0.18,0.18
263,至善臨溪路口,士林區,121.542153,25.097103,0.53,0.5,0.53,0.53,0.55,0.45,0.42,0.79,0.76,0.79,0.71,0.5,0.24,0.26,0.29,0.37,0.42,0.47
264,秀山區民活動中心,北投區,121.493009,25.145936,0.46,0.43,0.39,0.36,0.32,0.18,0.11,0.11,0.14,0.18,0.18,0.07,0.07,0.07,0.14,0.64,0.71,0.68
265,中央北路四段30巷口,北投區,121.478,25.135394,0.4,0.5,0.47,0.3,0.33,0.3,0.27,0.23,0.27,0.14,0.1,0.13,0.23,0.27,0.3,0.3,0.27,0.3
266,洲子一號公園,內湖區,121.564806,25.080258,0.06,0.24,0.76,0.35,0.44,0.38,0.35,0.71,0.74,0.79,0.62,0.59,0,0.38,0.12,0.06,0.03,0
267,八德中坡路口,南港區,121.580194,25.05062,0.24,0.29,0.42,0.55,0.47,0.34,0.32,0.29,0.58,0.68,0.66,0.66,0.24,0.24,0.11,0.16,0.11,0.18
268,南港高工,南港區,121.607055,25.056655,0.53,0.53,0.53,0.47,0.23,0.24,0.21,0.24,0.28,0.03,0.1,0.13,0.27,0.23,0.2,0.3,0.37,0.4
269,三軍總醫院,內湖區,121.590304,25.070723,0.47,0.57,0.57,0.6,0.6,0.57,0.6,0.57,0.57,0.53,0.5,0.37,0.23,0.37,0.47,0.47,0.7,0.67
270,雨農國小,士林區,121.529217,25.105429,0.38,0.62,0.44,0.32,0.18,0.35,0.41,0.32,0.41,0.65,0.88,0.24,0.62,0.32,0.68,0.44,0.59,0.79
271,伊通長安路口,中山區,121.534693,25.048334,0.21,0.07,0.82,0.64,0.54,0.36,0.11,0.29,0.39,0.44,0.5,0.54,0.07,0,0.11,0.07,0.11,0.18
272,忠順區民活動中心,文山區,121.563125,24.984707,0.59,0.38,0.38,0.25,0.28,0.22,0.28,0.28,0.22,0.31,0.44,0.53,0.25,0.25,0.28,0.31,0.47,0.59
273,芝山國小,士林區,121.535954,25.110437,0.71,0.68,0.58,0.58,0.47,0.42,0.21,0.13,0.16,0.16,0.16,0.29,0.16,0.21,0.11,0.42,0.89,0.63
274,扶輪親恩公園,內湖區,121.579833,25.066997,0.59,0.44,0.12,0.12,0.5,0.5,0.47,0.44,0.47,0.53,0.53,0.5,0.12,0.09,0.09,0.12,0.12,0.15
275,西本願寺廣場,萬華區,121.507688,25.040988,0.71,0.71,0.73,0.5,0.7,0.57,0.62,0.62,0.62,0.51,0.68,0.57,0.5,0.52,0.39,0.44,0.19,0.04
276,三興公園,信義區,121.55932,25.028679,0.78,0.59,0.66,0.55,0.34,0.34,0.42,0.42,0.45,0.47,0.63,0.79,0.08,0.21,0.13,0.29,0.5,0.5
277,中山堂,中正區,121.51025,25.044091,0.29,0.03,0.34,0.5,0.5,0.38,0.38,0.25,0.19,0.69,0.69,0.91,0.28,0.19,0.19,0.19,0.09,0.09
278,明美公園,內湖區,121.586065,25.062557,0.09,0.25,0.53,0.53,0.47,0.5,0.5,0.53,0.5,0.47,0.44,0.16,0,0.03,0.03,0.09,0.03,0.09
279,南港車站(興華路),南港區,121.606331,25.053432,0.65,0.62,0.48,0.06,0.27,0.17,0.38,0.35,0.4,0.42,0.35,0.33,0.66,0.49,0.43,0.34,0.13,0.32
280,士林新天地,士林區,121.51732,25.089034,0.57,0.21,0.54,0.43,0.43,0.5,0.43,0.32,0.36,0.21,0.18,0.14,0.36,0.04,0.44,0.22,0.29,0.39
281,松江公園,中山區,121.532725,25.050245,0.16,0.35,0.23,0.35,0.29,0.32,0.06,0.29,0.13,0.52,0.61,0.42,0.09,0.12,0.06,0.22,0.16,0.22
282,富台公園,信義區,121.571999,25.041935,0.73,0.6,0.37,0.47,0.7,0.69,0.72,0.52,0.31,0.1,0.38,0.14,0.62,0.69,0.83,0.47,1,0.47
283,中央北路四段540巷口,北投區,121.4677,25.127959,0.06,0,0,0.25,0.25,0.19,0.29,0.34,0.31,0.22,0.28,0.25,0.34,0.31,0.28,0.28,0.31,0.25
284,華聲公園,士林區,121.522096,25.096166,0.5,0.39,0.34,0.41,0.32,0.3,0.34,0.39,0.27,0.3,0.25,0.32,0.48,0.43,0.43,0.74,0.79,0.84
285,螢橋國小,中正區,121.51377,25.025966,0.88,0.47,0.74,0.38,0.18,0.51,0.56,0.64,0.72,0.46,0.62,0.67,0.31,0.54,0.74,0.29,0.53,0.63
286,德明財經科技大學,內湖區,121.565713,25.086372,0.79,0.59,0.65,0.74,0.56,0.47,0.5,0.47,0.38,0.35,0.12,0.32,0.15,0.21,0.26,0.47,0.74,0.74
287,第二果菜批發市場,中山區,121.538264,25.067558,0.54,0.23,0.03,0.03,0.03,0.06,0.2,0.2,0.23,0.23,0.34,0.57,0.09,0.2,0.2,0.29,0.6,0.74
288,濟南紹興路口,中正區,121.524591,25.041928,0.46,0.34,0.61,0.67,0.66,0.64,0.61,0.72,0.75,0.74,0.56,0.34,0.2,0.25,0.18,0.2,0.31,0.33
289,牯嶺公園,中正區,121.518835,25.023377,0.56,0.43,0.27,0.19,0.05,0.11,0.08,0.05,0.05,0.41,0.62,0.32,0.46,0.84,0.11,0.38,0.68,0.7
290,新生公園,中山區,121.530188,25.068387,0.27,0.27,0.19,0.19,0.04,0.08,0.04,0,0.08,0.27,0.35,0.15,0.35,0.19,0.38,0.62,0.23,0.35
291,捷運松山站(3號出口),松山區,121.577459,25.049616,0.96,0.78,0.34,0.4,0.32,0.36,0.54,0.62,0.58,0.56,0.38,0.62,0.7,0.74,0.34,0.4,0.42,0.26
292,合心廣場,南港區,121.582848,25.046361,0.78,0.65,0.62,0.68,0.6,0.57,0.62,0.75,0.7,0.65,0.65,0.45,0.42,0.45,0.4,0.4,0.42,0.5
293,自來水園區,中正區,121.530037,25.013284,0.08,0.31,0.26,0.18,0.05,0.23,0.36,0.28,0.33,0.1,0,0.13,0.16,0.79,0.08,0,0.13,0.03
294,朱崙商場,中山區,121.540431,25.047617,0.11,0.06,0.64,0.92,0.64,0.44,0.72,0.58,0.67,0.81,0.78,0.61,0.47,0.22,0.03,0.22,0.14,0.11
295,敦親公園,大安區,121.541083,25.023473,0.19,0.46,0.46,0.35,0.08,0.15,0.08,0.19,0.08,0.19,0.28,0.28,0.12,0.5,0.42,0.54,0.46,0.65
296,萬和二號公園,文山區,121.536446,25.001545,0.41,0.31,0.5,0.47,0.5,0.47,0.53,0.38,0.38,0.31,0.31,0.22,0.25,0.12,0.31,0.38,0.62,0.5
297,長沙公園,萬華區,121.499922,25.041702,0.5,0.35,0.31,0.31,0.35,0.35,0.38,0.38,0.38,0.31,0.35,0.35,0.28,0.32,0.4,0.6,0.88,0.83
298,太原五原路口,大同區,121.516976,25.056458,0.28,0,0.09,0.16,0.03,0,0.09,0.06,0.06,0.03,0.22,0.41,0.53,0.41,0.06,0.25,0.25,0.31
299,萬華國中,萬華區,121.499358,25.029264,0.38,0.41,0.47,0.44,0.31,0.22,0.12,0.12,0.19,0.19,0.09,0.16,0.31,0.28,0.31,0.31,0.38,0.41
300,信義基隆路口,信義區,121.558731,25.033209,0.3,0.22,0.93,0.33,0.63,0.37,0.41,0.7,0.22,0,0.52,0.82,0.7,0.22,0.48,0.12,0.08,0.19
301,林森長春路口,中山區,121.525383,25.055062,0.25,0.25,0.29,0.39,0.43,0.07,0.14,0.14,0.32,0.21,0.32,0.18,0.14,0.29,0.57,0.64,0.71,0.75
302,敦北公園,松山區,121.550711,25.060746,0.44,0.51,0.72,0.69,0.67,0.62,0.56,0.54,0.62,0.64,0.64,0.31,0.05,0.13,0.26,0.23,0.1,0.21
303,安泰街83巷,內湖區,121.617085,25.076691,0.81,0.59,0.37,0.26,0.15,0.11,0.11,0.11,0.04,0.11,0.15,0.19,0.33,0.15,0.19,0.44,0.7,0.74
304,金華公園,大安區,121.531235,25.029902,0.48,0.42,0.29,0.58,0.52,0.45,0.52,0.35,0.39,0.35,0.32,0.16,0.61,0.48,0,0.26,0.55,0.65
305,碧山公園,內湖區,121.592253,25.087413,0.61,0.74,0.26,0.28,0.22,0.15,0.07,0.02,0,0.02,0.02,0,0.2,0.26,0.13,0.35,0.65,0.83
306,捷運古亭站(6號出口),大安區,121.52198,25.027781,0.83,0.63,0.23,0.04,0.08,0.27,0.4,0.56,0.54,0.63,0.65,0.52,0.63,0.65,0.55,0.43,0.16,0.3
307,仁愛安和路口,大安區,121.552076,25.03757,0.17,0.24,0.7,0.67,0.23,0.2,0.17,0.33,0.27,0.27,0.1,0.37,0.1,0.43,0.13,0.1,0.17,0.1
308,西松高中,松山區,121.567127,25.055672,0.87,0.83,0.57,0.33,0.27,0.5,0.47,0.63,0.53,0.2,0,0.1,0.1,0.5,0.23,0.63,0.43,0.67
309,三軍總醫院(松山分院),松山區,121.556098,25.05447,0.65,0.84,0.84,0.57,0.51,0.41,0.32,0.22,0.19,0.3,0.11,0.03,0.14,0.14,0.14,0.46,0.54,0.59
310,國立臺北大學(臺北校區),中山區,121.542732,25.057923,0.09,0.09,0.31,0.47,0.55,0.42,0.48,0.66,0.47,0.53,0.41,0.22,0.65,0.34,0.47,0.35,0.31,0.31
311,捷運忠孝新生站(2號出口),中正區,121.532229,25.042392,0.5,0.63,0.63,0.07,0.07,0.23,0.27,0.23,0.2,0.1,0.28,0.21,0.14,0.03,0.1,0.07,0.33,0.47
312,捷運信義安和站(1號出口),大安區,121.552787,25.033323,0.68,0.03,0.38,0.15,0,0.26,0.26,0.32,0.32,0.38,0.03,0.18,0.41,0.61,0.3,0.12,0.12,0.24
313,光華商場,中正區,121.532738,25.04515,0.44,0.39,0.34,0.47,0.44,0.75,0.78,0.58,0.66,0.59,0.62,0.7,0.57,0.68,0.51,0.3,0.33,0.32
314,敦化長春路口,松山區,121.54872,25.053614,0.24,0.62,0.35,0.32,0.47,0.38,0.24,0.27,0.33,0.56,0.41,0.71,0.35,0.32,0.03,0.03,0.03,0
315,捷運萬隆站(1號出口),文山區,121.539037,25.001447,0.08,0.3,0.27,0.35,0.3,0.38,0.3,0.27,0.38,0.44,0.31,0.67,0.29,0.21,0.16,0.24,0.16,0.05
316,民有一號公園,松山區,121.54763,25.060911,0.64,0.39,1,0.52,0.55,0.52,0.58,0.52,0.24,0.47,0.44,0.41,0.03,0,0.06,0.09,0.56,0.59
317,雙園國中,萬華區,121.491675,25.026823,0.66,0.5,0.5,0.6,0.6,0.47,0.57,0.21,0.17,0.38,0.54,0.14,0.29,0.43,0.54,0.52,0.97,0.6
318,成功金龍路口,內湖區,121.59484,25.084135,0.55,0.31,0.66,0.66,0.59,0.41,0.34,0.45,0.41,0.41,0.55,0.79,0.52,0.66,0.24,0.52,0,0.07
319,民族林森路口,中山區,121.525322,25.068507,0.58,0.5,0.47,0.55,0.5,0.58,0.21,0.16,0.18,0.24,0.21,0.16,0.16,0.16,0.26,0.47,0.61,0.66
320,捷運南京三民站(3號出口),松山區,121.564262,25.051287,0.39,0.39,0.14,0.29,0.22,0.52,0.56,0.29,0.25,0.07,0.36,0.11,0.25,0.25,0.5,0.11,0.14,0
321,莒光大埔街口,中正區,121.505085,25.031334,0.65,0.58,0.52,0.48,0.42,0.39,0.39,0.48,0.42,0.52,0.58,0.81,0.65,0.23,0.29,0.55,0.58,0.61
322,永盛公園(民生東路一段23巷),中山區,121.52504,25.058835,0.53,0.37,0.43,0.37,0.47,0.2,0,0.4,0.37,0.23,0.07,0,0.03,0.13,0.13,0.43,0.67,0.68
323,新興公園,中山區,121.524392,25.061568,0.24,0.16,0.4,0.44,0.32,0.32,0.24,0.32,0.36,0.28,0.58,0,0.23,0,0.35,0.54,0.85,0.85
324,市立圖書館葫蘆堵分館,士林區,121.5108,25.08221,0.58,0.38,0.25,0.5,0.5,0.46,0.46,0.58,0.54,0.04,0.25,0.38,0.33,0.5,0.71,0.25,0.38,0.54
325,南京東路六段368巷,內湖區,121.58707,25.05827,0.23,0.25,0.4,0.45,0.45,0.45,0.5,0.5,0.5,0.5,0.53,0.42,0.03,0.05,0.12,0.17,0.12,0.12
326,基隆路一段101巷口,信義區,121.56709,25.04525,0.47,0.17,0.63,0.57,0.63,0.73,0.77,0.8,0.47,0.63,0.6,0.2,0.1,0.47,0.37,0.53,0.83,0.87
327,重慶南海路口,中正區,121.51464,25.03158,0.29,0.21,0.5,0.42,0.58,0.54,0.33,0.42,0.29,0.71,0.42,0.22,0.42,0.12,0.12,0.12,0.04,0.12
328,一江公園,中山區,121.53146,25.05316,0.31,0.47,0.5,0.39,0.51,0.66,0.57,0.63,0.6,0.6,0.63,0.29,0.11,0,0.34,0.31,0.51,0.57
329,樂群二明水路口,中山區,121.55236,25.07983,0.35,0.26,0.44,0.71,0.44,0.47,0.41,0.41,0.47,0.44,0.26,0.03,0.09,0.29,0.21,0.21,0.26,0.44
330,迪化休閒運動公園,大同區,121.5115,25.07491,0.7,0.67,0.63,0.74,0.33,0.3,0.41,0.31,0.33,0.33,0.44,0.48,0.48,0.41,0.37,0.41,0.56,0.63
331,民族玉門街口,中山區,121.51974,25.06859,0.53,0.47,0.59,0.44,0.38,0.35,0.44,0.44,0.58,0.58,0.61,0.41,0.15,0.32,0.41,0.18,0.06,0.29
332,捷運中山站(2號出口),中山區,121.52193,25.05225,0.47,0.44,0.35,0.21,0.12,0.29,0.5,0.62,0.91,0.56,0.65,0.88,0.94,0.64,0.65,0.35,0.21,0.03
333,復盛公園,松山區,121.561182,25.047428,0.32,0.07,0.04,0.04,0.18,0.46,0.39,0.43,0.32,0.25,0.29,0.5,0.71,0.89,0.32,0.21,0.43,0.57
334,敦化南路二段103巷口,大安區,121.549024,25.028973,0.29,0.25,0.58,0.42,0.17,0.04,0.08,0.29,0.04,0.08,0.33,0.75,0.42,0.21,0.17,0.29,0.21,0.21
335,景文中學,文山區,121.567855,24.986301,0.66,0.81,0.5,0.53,0.38,0.47,0.38,0.47,0.47,0.47,0.31,0.16,0.34,0,0.25,0.25,0.34,0.41
336,承德路三段8巷口,大同區,121.51815,25.06382,0.5,0.55,0.55,0.45,0.32,0.68,0.86,0.77,0.73,0.67,0.52,0.5,0.14,0.19,0.1,0.19,0,0.38
337,彩虹橋,內湖區,121.57592,25.05301,0.47,0.47,0.37,0.4,0.4,0.43,0.47,0.47,0.2,0.17,0.2,0.13,0.27,0.23,0.2,0.5,0.4,0.33
338,成德國中,南港區,121.58794,25.04573,0.31,0.59,0.31,0.16,0.44,0.35,0.23,0.26,0.29,0.23,0.03,0.26,0.78,1,0.38,0.12,0.22,0.25
339,重慶國中,大同區,121.51816,25.07581,0.32,0.68,0.79,0.76,0.76,0.74,0.26,0.29,0.44,0.38,0.47,0.5,0.74,0.41,0.47,0.62,0.68,0.71
340,南京光復路口,松山區,121.55716,25.05143,0.5,0.32,0.45,0.59,0.59,0.55,0.91,0.73,0.5,0.41,0.55,0.32,0.27,0.09,0.36,0.05,0.5,0.32
341,捷運芝山站(1號出口),士林區,121.52243,25.10094,0.51,0.38,0.3,0.27,0.27,0.27,0.24,0.27,0.32,0.32,0.21,0.21,0.42,0.47,0.32,0.26,0.05,0.03
342,文林建民路口,北投區,121.51468,25.10779,0.4,0.23,0.23,0.13,0.03,0.07,0.1,0.1,0.1,0.17,0.23,0.27,0.4,0.47,0.53,0.8,0.67,0.83
343,忠孝東路六段185巷口,南港區,121.58755,25.04904,0.59,0.2,0.4,0.37,0.37,0.43,0.53,0.33,0.4,0.5,0.4,0.33,0.52,0.1,0.17,0.4,0.77,0.6
344,捷運忠孝復興站(5號出口),大安區,121.54401,25.04264,0.55,0.38,0.12,0.02,0.14,0.07,0.4,0.4,0.4,0.5,0.31,0.31,0.24,0.64,0.52,0.14,0.19,0.49
345,中正運動中心,中正區,121.51943,25.03806,0.32,0.5,0.61,0.79,0.71,0.75,0.82,0.32,0.32,0.21,0.14,0.04,0.61,0.5,0.11,0,0.29,0.21
346,陽明高中,士林區,121.51669,25.09157,0.44,0.56,0.75,0.83,0.86,0.75,0.64,0.72,0.67,0.61,0.53,0.39,0.39,0.36,0.42,0.25,0.39,0.39
347,博愛寶慶路口,中正區,121.51135,25.04134,0.35,0.5,0.38,0.46,0.58,0.54,0.5,0.73,0.58,0.73,0.54,0.54,0.08,0.04,0.04,0.12,0.27,0.15
348,民生立體停車場,松山區,121.55945,25.05794,0.75,0.46,0.29,0.12,0.42,0.29,0.29,0.29,0.67,0.68,0.87,0.5,0.67,0.54,0.71,0.33,0.46,0.88
349,重慶酒泉街口,大同區,121.51364,25.07183,0.46,0.54,0,0.39,0.46,0.36,0.25,0,0.25,0.21,0.25,0.21,0.68,0.32,0.39,0.54,0.21,0.32
350,復興南路二段128巷口,大安區,121.54336,25.02904,0.83,0.54,0.31,0.11,0.42,0.59,0.49,0.34,0.29,0.18,0.03,0.26,0.76,0.35,0.5,0.29,0.29,0.47
351,中山青島路口,中正區,121.51954,25.04469,0.51,0.89,0.43,0.41,0.27,0.46,0.51,0.54,0.51,0.49,0.79,0.53,0.58,0.53,0.63,0.55,0.26,0.16
352,民權迪化街口,大同區,121.50944,25.06318,0.31,0.19,0.17,0.19,0.28,0.28,0.22,0.33,0.33,0.39,0.39,0.44,0.64,0.39,0.31,0.56,0.67,0.81
353,紀州庵,中正區,121.52049,25.02088,0.63,0.83,0.33,0.3,0.17,0.03,0,0.03,0.03,0.03,0.03,0.1,0.33,0.3,0.47,0.23,0.63,0.57
354,建國濟南路口,大安區,121.538084,25.040033,0.14,0.18,0.46,0.71,0.75,0.18,0.07,0.07,0.07,0.07,0.07,0.04,0.18,0.21,0.29,0.18,0.11,0.07
355,福山公園,南港區,121.61759,25.04478,0.53,0.56,0.5,0.56,0.59,0.24,0.29,0.29,0.35,0.41,0.41,0.44,0.24,0.24,0.24,0.58,0.64,0.61
356,臺北市網球中心,內湖區,121.59749,25.0674,0.16,0.16,0.16,0.16,0.16,0.32,0.29,0.35,0.35,0.23,0.16,0.22,0.16,0.06,0.19,0.16,0.12,0.19
357,松友公園,信義區,121.57636,25.03423,0.35,0.54,0.54,0.58,0.46,0.54,0.46,0.62,0.73,0.88,0.5,0.5,0.69,0.08,0.23,0.5,0.19,0.27
358,新明成功路口,內湖區,121.5911,25.06058,0.41,0.31,0.13,0.1,0.47,0.5,0.5,0.47,0.47,0.45,0.48,0.29,0.25,0.34,0.21,0.24,0.21,0.24
359,健安新城,松山區,121.56358,25.05601,0.81,0.25,0.12,0.19,0.29,0.03,0.09,0.09,0.21,0.12,0.21,0.29,0.44,0.68,0.82,0.24,0.38,0.65
360,民權建國路口,中山區,121.53754,25.06252,0.35,0.28,0.35,0.6,0.56,0.67,0.72,0.67,0.65,0.63,0.65,0.47,0.12,0.14,0.05,0.28,0.23,0.23
361,振興醫院,北投區,121.5222,25.1177,0.19,0.53,0.47,0.25,0.38,0.81,0.84,0.72,0.66,0.53,0.19,0.03,0.5,0.34,0.19,0.06,0.19,0.34
362,和平金山路口,大安區,121.52533,25.02672,0.31,0.38,0.66,0.59,0.79,0.69,0.93,0.72,0.69,0.66,0.34,0.14,0.55,0.76,0.86,0.76,0.59,0.48
363,復興南路一段340巷口,大安區,121.5435,25.03617,0.35,0.23,0.48,0.38,0.34,0.47,0.28,0.22,0.47,0.53,0.34,0.62,0.55,0.65,0.55,0.1,0.06,0.52
364,嘉興公園,大安區,121.55219,25.02109,0.39,0.82,0.18,0.55,0.42,0.29,0.39,0.29,0.24,0.03,0.08,0.54,0.71,0.18,0.42,0.29,0.05,0.32
365,陽明大學,北投區,121.51223,25.11912,0.6,0.52,0.59,0.76,0.52,0.5,0.42,0.36,0.26,0.4,0.37,0.27,0.12,0.24,0.31,0.59,0.76,0.78
366,碧湖公園,內湖區,121.58287,25.07988,0.52,0.5,0.34,0.27,0.22,0.17,0.22,0.22,0.19,0.21,0.21,0.21,0.38,0.33,0.45,0.43,0.48,0.45
367,豐年公園,北投區,121.497019,25.13597,0.47,0.17,0,0.3,0.3,0.23,0.17,0.1,0.13,0.13,0.17,0.2,0.37,0.5,0.73,0.4,0.5,0.57
368,臺灣戲曲中心,士林區,121.51979,25.10208,0.2,0.23,0.39,0.41,0.43,0.43,0.45,0.45,0.45,0.61,0.45,0.39,0.35,0.28,0.26,0.28,0.3,0.3
369,世新大學,文山區,121.54361,24.98862,0.38,0.41,0.41,0.53,0.56,0.5,0.53,0.5,0.53,0.5,0.38,0.41,0.29,0.44,0.41,0.38,0.32,0.47
370,新和國小,萬華區,121.50242,25.02656,0.36,0.07,0.59,0.57,0.46,0.39,0.43,0.32,0.36,0.32,0.36,0.11,0.18,0.11,0.29,0.29,0.5,0.61
371,南門國中,中正區,121.50834,25.03532,0.62,0.97,0.92,0.54,0.62,0.46,0.41,0.29,0.34,0.47,0.24,0.11,0.03,0.03,0.08,0.13,0.08,0.08
372,重慶民族路口,大同區,121.51359,25.06825,0.38,0.58,0.54,0.69,0.77,0.65,0.73,0.81,0.31,0.23,0.15,0,0.46,0.77,0.27,0.42,0.69,0.58
373,中崙福成宮,松山區,121.546635,25.04525,0.44,0.52,0.44,0.28,0.31,0.16,0.19,0.31,0.44,0.28,0.19,0.25,0.09,0.12,0.06,0,0.19,0.22
374,麗湖國小,內湖區,121.602225,25.073322,0.41,0.44,0.44,0.41,0.32,0.29,0.29,0.26,0.26,0.32,0.32,0.26,0.09,0.18,0.18,0.24,0.29,0.29
375,銘傳大學,士林區,121.526766,25.087714,0.4,0.4,0.35,0.42,0.44,0.44,0.5,0.52,0.54,0.58,0.5,0.46,0.31,0.27,0.38,0.4,0.42,0.33
376,民生建國路口,中山區,121.536915,25.057778,0.22,0.17,0.47,0.75,0.75,0.69,0.67,0.75,0.75,0.78,0.69,0.47,0.06,0.39,0.28,0.28,0.36,0.31
377,南港路二段178巷口,南港區,121.599693,25.053675,0.25,0.21,0.5,0.54,0.3,0.23,0.23,0.2,0.2,0.17,0.17,0.17,0.13,0.13,0.28,0.41,0.55,0.69
378,陽光街321巷口,內湖區,121.578691,25.073193,0.23,0.27,0.53,0.5,0.57,0.43,0.5,0.77,0.83,0.7,0.53,0.23,0.23,0,0.03,0.17,0.07,0.07
379,春光公園,信義區,121.580762,25.042619,0.5,0.42,0.24,0.32,0.32,0.53,0.47,0.42,0.47,0.55,0.5,0.55,0.84,0.22,0.39,0.66,0.71,0.45
380,塔悠疏散門,松山區,121.567899,25.064713,0.27,0.13,0.03,0.07,0.03,0.03,0.03,0.03,0.03,0,0.07,0.23,0.13,0.1,0.2,0.33,0.77,0.83
381,民權東路六段15巷,內湖區,121.578125,25.06853,0.24,0.28,0.45,0.66,0.7,0.63,0.73,0.67,0.7,0.67,0.6,0.57,0.4,0.27,0.17,0.07,0.03,0.07
382,聯合醫院和平院區,中正區,121.50639,25.03516,0.62,0.76,0.69,0.67,0.76,0.67,0.62,0.71,0.76,0.71,0.57,0.5,0.67,0.62,0.57,0.43,0.45,0.55
383,一壽橋,文山區,121.55545,24.97848,0.64,0.6,0.44,0.48,0.6,0.48,0.52,0.52,0.52,0.32,0.12,0.12,0.16,0.68,0.16,0.44,0.48,0.52
384,松基公園,松山區,121.5448,25.05491,0.33,0.43,0.72,0.5,0.57,0.4,0.4,0.47,0.5,0.43,0.4,0.53,0.03,0.07,0.13,0.23,0.37,0.3
385,和興路26巷口,文山區,121.54531,24.9856,0.55,0.47,0.45,0.4,0.38,0.35,0.33,0.38,0.3,0.33,0.35,0.45,0.23,0.28,0.35,0.45,0.68,0.75
386,錦州吉林路口,中山區,121.52981,25.06029,0.5,0.37,0.37,0.3,0.27,0.23,0.17,0.2,0.27,0.27,0.2,0.13,0.33,0.4,0.2,0.5,0.73,0.87
387,吳興街260巷,信義區,121.56316,25.0261,0.16,0.32,0.74,0.19,0.23,0.06,0.35,0.13,0.23,0.03,0,0.16,0.23,0.65,0.23,0.55,0.42,0.29
388,景華街128巷口,文山區,121.547092,24.995563,0.12,0.54,0.25,0.46,0.71,0.67,0.67,0.58,0.67,0.62,0.46,0.54,0.38,0.12,0.5,0.21,0.04,0.29
389,福德國小,信義區,121.586245,25.038324,0.53,0.1,0.3,0.8,0.8,0.53,0.6,0.6,0.17,0.23,0.1,0.53,0.13,0.5,0.1,0.69,0.69,0.34
390,稻香重三路口,北投區,121.489594,25.139937,0.79,0.53,0.35,0.32,0.38,0.32,0.35,0.32,0.32,0.29,0.29,0.38,0.44,0.53,0.62,0.76,0.56,0.88
391,景仁公園,文山區,121.540295,24.9966,0.62,0.5,0.53,0.53,0.5,0.4,0.43,0.37,0.37,0.33,0.27,0.27,0.57,0.5,0.47,0.33,0.4,0.63
392,南京東興路口,松山區,121.565347,25.051489,0.63,0.33,0.1,0.03,0.27,0.3,0.3,0.5,0.4,0.57,0.3,0.33,0.52,0.17,0.38,0.33,0.13,0.27
393,內溝溪生態展示館,內湖區,121.623062,25.087217,0.46,0.5,0.46,0.46,0.46,0.46,0.46,0.46,0.46,0.5,0.54,0.5,0.58,0.54,0.62,0.62,0.62,0.58
394,松德虎林街口,信義區,121.576248,25.038352,0.25,0.31,0.09,0.25,0.41,0.22,0.25,0.31,0.41,0.41,0.34,0.47,0.16,0.31,0.59,0.69,0.28,0.34
395,安強公園,信義區,121.575413,25.036844,0.79,0.57,1,0.46,0.61,0.54,0.25,0.29,0.75,0.86,0.93,0.75,0.63,0.33,0.39,0.89,0.61,0.86
396,新東街51巷口,松山區,121.563318,25.061501,0.81,0.74,0.59,0.48,0.69,0.5,0.38,0.31,0.37,0.44,0.48,0.48,0.37,0.44,0.7,0.44,1,0.59
397,劍潭海外青年活動中心,士林區,121.5237,25.079603,0.28,0.17,0.19,0.23,0.2,0.26,0.31,0.29,0.23,0.17,0.09,0.17,0.29,0.6,0.59,0.74,0.4,0.33
398,聯合醫院陽明院區,士林區,121.531949,25.104546,0.13,0.57,0.77,0.77,0.73,0.73,0.77,0.83,0.8,0.8,0.8,0.4,0.13,0.4,0.27,0.4,0.53,0.47
399,和平龍泉街口,大安區,121.52946,25.026404,0,0,0,0,0,0,0,0,0,0,0,0,0,0,0,0,0,0
400,和平敦化路口,大安區,121.549076,25.02444,0,0.06,0.15,0.3,0.12,0.15,0.27,0.21,0.55,0.67,0.33,0.24,0.15,0.06,0.18,0.03,0.09,0.09
401,南京新生路口,中山區,121.527661,25.051944,0.74,0.71,0.62,0.68,0.5,0.32,0.32,0.32,0.29,0.35,0.32,0.06,0.15,0.68,0.35,0.48,0.36,0.7
402,下灣公園,內湖區,121.595611,25.065159,0.33,0.33,0.3,0.3,0.3,0.33,0.33,0.41,0.48,0.44,0.44,0.37,0.37,0.37,0.41,0.41,0.37,0.37
403,捷運內湖站(1號出口),內湖區,121.593929,25.083868,0.5,0.65,0.54,0.81,0.38,0.35,0.31,0.46,0.56,0.41,0.37,0.19,0.59,0.56,0.26,0.3,0,0.3
404,民族延平路口,大同區,121.510569,25.068653,0.67,0.57,0.6,0.4,0.17,0.07,0.07,0.13,0.17,0.1,0.2,0.2,0.4,0.8,0.2,0.3,0.7,0.7
